file_name,height,width,date_time,frame,drone,folder_name,video,frame_no,image_name,image_name,datetime(utc),latitude,longitude,height_above_takeoff(meter),speed(m/s),xspeed(m/s),yspeed(m/s),zspeed(m/s),compass_heading(degrees),gimbal_heading(degrees),gimbal_pitch(degrees),date_time,gps_latitude_ref,gps_longitude_ref,altitude,gimbal_pitch,speed,xspeed,yspeed,zspeed,gps_latitude,gps_longitude
3464.jpg,2160,3840,2020-08-25T14:19:21.647133,,mavic,DJI_0032,DJI_0032.MP4,5415.0,,DJI_0032_merged.MP4_image5316.png,2020-08-25 12:19:22,47.67209,9.267889,9.999512343797623,2.8019248457755923,-0.09999731783638802,-2.7999248994188646,0.0,116.5,99.3,13.7,,,,,,,,,,,
3465.jpg,2160,3840,2020-08-25T14:19:22.147633,,mavic,DJI_0032,DJI_0032.MP4,5430.0,,DJI_0032_merged.MP4_image5316.png,2020-08-25 12:19:22,47.67209,9.267889,9.999512343797623,2.8019248457755923,-0.09999731783638802,-2.7999248994188646,0.0,116.5,99.3,13.7,,,,,,,,,,,
3466.jpg,2160,3840,2020-08-25T14:19:22.648133,,mavic,DJI_0032,DJI_0032.MP4,5445.0,,DJI_0032_merged.MP4_image5348.png,2020-08-25 12:19:23,47.672089,9.267852,9.999512343797623,2.699927581582476,0.0,-2.699927581582476,0.0,111.1,93.9,12.8,,,,,,,,,,,
3467.jpg,2160,3840,2020-08-25T14:19:23.148633,,mavic,DJI_0032,DJI_0032.MP4,5460.0,,DJI_0032_merged.MP4_image5348.png,2020-08-25 12:19:23,47.672089,9.267852,9.999512343797623,2.699927581582476,0.0,-2.699927581582476,0.0,111.1,93.9,12.8,,,,,,,,,,,
3468.jpg,2160,3840,2020-08-25T14:19:23.649133,,mavic,DJI_0032,DJI_0032.MP4,5475.0,,DJI_0032_merged.MP4_image5379.png,2020-08-25 12:19:24,47.672089,9.267815,9.899517220359646,2.8019248457755923,-0.09999731783638802,-2.7999248994188646,0.0,105.8,88.5,12.0,,,,,,,,,,,
3469.jpg,2160,3840,2020-08-25T14:19:24.149633,,mavic,DJI_0032,DJI_0032.MP4,5490.0,,DJI_0032_merged.MP4_image5379.png,2020-08-25 12:19:24,47.672089,9.267815,9.899517220359646,2.8019248457755923,-0.09999731783638802,-2.7999248994188646,0.0,105.8,88.5,12.0,,,,,,,,,,,
3470.jpg,2160,3840,2020-08-25T14:19:24.650133,,mavic,DJI_0032,DJI_0032.MP4,5505.0,,DJI_0032_merged.MP4_image5407.png,2020-08-25 12:19:25,47.672089,9.267778,9.999512343797623,2.8019248457755923,-0.09999731783638802,-2.7999248994188646,0.0,100.4,83.2,11.2,,,,,,,,,,,
3471.jpg,2160,3840,2020-08-25T14:19:25.150633,,mavic,DJI_0032,DJI_0032.MP4,5520.0,,DJI_0032_merged.MP4_image5407.png,2020-08-25 12:19:25,47.672089,9.267778,9.999512343797623,2.8019248457755923,-0.09999731783638802,-2.7999248994188646,0.0,100.4,83.2,11.2,,,,,,,,,,,
3472.jpg,2160,3840,2020-08-25T14:19:25.651133,,mavic,DJI_0032,DJI_0032.MP4,5535.0,,DJI_0032_merged.MP4_image5443.png,2020-08-25 12:19:26,47.672088,9.267741,9.899517220359646,2.1019436209208764,-0.09999731783638802,-2.0999436745641487,0.0,95.6,78.0,10.6,,,,,,,,,,,
3473.jpg,2160,3840,2020-08-25T14:19:26.151633,,mavic,DJI_0032,DJI_0032.MP4,5550.0,,DJI_0032_merged.MP4_image5443.png,2020-08-25 12:19:26,47.672088,9.267741,9.899517220359646,2.1019436209208764,-0.09999731783638802,-2.0999436745641487,0.0,95.6,78.0,10.6,,,,,,,,,,,
3474.jpg,2160,3840,2020-08-25T14:19:26.652133,,mavic,DJI_0032,DJI_0032.MP4,5565.0,,DJI_0032_merged.MP4_image5464.png,2020-08-25 12:19:27,47.672087,9.267736,9.899517220359646,1.2079675994635672,-0.4999865891819401,1.0999704962002683,0.0,91.6,75.5,10.1,,,,,,,,,,,
3475.jpg,2160,3840,2020-08-25T14:19:27.152633,,mavic,DJI_0032,DJI_0032.MP4,5580.0,,DJI_0032_merged.MP4_image5464.png,2020-08-25 12:19:27,47.672087,9.267736,9.899517220359646,1.2079675994635672,-0.4999865891819401,1.0999704962002683,0.0,91.6,75.5,10.1,,,,,,,,,,,
3476.jpg,2160,3840,2020-08-25T14:19:27.653133,,mavic,DJI_0032,DJI_0032.MP4,5595.0,,DJI_0032_merged.MP4_image5495.png,2020-08-25 12:19:28,47.672073,9.267767,9.999512343797623,3.38390923558337,-1.8999490388913725,2.7999248994188646,0.0,90.3,72.8,10.2,,,,,,,,,,,
3477.jpg,2160,3840,2020-08-25T14:19:28.153633,,mavic,DJI_0032,DJI_0032.MP4,5610.0,,DJI_0032_merged.MP4_image5495.png,2020-08-25 12:19:28,47.672073,9.267767,9.999512343797623,3.38390923558337,-1.8999490388913725,2.7999248994188646,0.0,90.3,72.8,10.2,,,,,,,,,,,
3478.jpg,2160,3840,2020-08-25T14:19:28.654133,,mavic,DJI_0032,DJI_0032.MP4,5625.0,,DJI_0032_merged.MP4_image5523.png,2020-08-25 12:19:29,47.672055,9.267804,9.799522096921669,2.6629285739830126,-1.4999597675458203,2.1999409924005366,0.0,85.6,68.1,10.8,,,,,,,,,,,
3479.jpg,2160,3840,2020-08-25T14:19:29.154633,,mavic,DJI_0032,DJI_0032.MP4,5640.0,,DJI_0032_merged.MP4_image5523.png,2020-08-25 12:19:29,47.672055,9.267804,9.799522096921669,2.6629285739830126,-1.4999597675458203,2.1999409924005366,0.0,85.6,68.1,10.8,,,,,,,,,,,
3480.jpg,2160,3840,2020-08-25T14:19:29.655133,,mavic,DJI_0032,DJI_0032.MP4,5655.0,,DJI_0032_merged.MP4_image5551.png,2020-08-25 12:19:30,47.672043,9.267831,9.999512343797623,2.6629285739830126,-1.4999597675458203,2.1999409924005366,0.0,81.6,64.3,11.3,,,,,,,,,,,
3481.jpg,2160,3840,2020-08-25T14:19:30.155633,,mavic,DJI_0032,DJI_0032.MP4,5670.0,,DJI_0032_merged.MP4_image5551.png,2020-08-25 12:19:30,47.672043,9.267831,9.999512343797623,2.6629285739830126,-1.4999597675458203,2.1999409924005366,0.0,81.6,64.3,11.3,,,,,,,,,,,
3482.jpg,2160,3840,2020-08-25T14:19:30.656133,,mavic,DJI_0032,DJI_0032.MP4,5685.0,,DJI_0032_merged.MP4_image5579.png,2020-08-25 12:19:31,47.672031,9.267857,9.999512343797623,2.719927045149754,-1.5999570853822083,2.1999409924005366,0.0,77.7,60.4,11.9,,,,,,,,,,,
3483.jpg,2160,3840,2020-08-25T14:19:31.156633,,mavic,DJI_0032,DJI_0032.MP4,5700.0,,DJI_0032_merged.MP4_image5579.png,2020-08-25 12:19:31,47.672031,9.267857,9.999512343797623,2.719927045149754,-1.5999570853822083,2.1999409924005366,0.0,77.7,60.4,11.9,,,,,,,,,,,
3484.jpg,2160,3840,2020-08-25T14:19:31.657133,,mavic,DJI_0032,DJI_0032.MP4,5715.0,,DJI_0032_merged.MP4_image5615.png,2020-08-25 12:19:32,47.672015,9.267889,9.899517220359646,2.719927045149754,-1.5999570853822083,2.1999409924005366,0.0,72.8,55.6,12.6,,,,,,,,,,,
3485.jpg,2160,3840,2020-08-25T14:19:32.157633,,mavic,DJI_0032,DJI_0032.MP4,5730.0,,DJI_0032_merged.MP4_image5615.png,2020-08-25 12:19:32,47.672015,9.267889,9.899517220359646,2.719927045149754,-1.5999570853822083,2.1999409924005366,0.0,72.8,55.6,12.6,,,,,,,,,,,
3486.jpg,2160,3840,2020-08-25T14:19:32.658133,,mavic,DJI_0032,DJI_0032.MP4,5745.0,,DJI_0032_merged.MP4_image5643.png,2020-08-25 12:19:33,47.672,9.267919,9.799522096921669,2.719927045149754,-1.5999570853822083,2.1999409924005366,0.0,68.4,51.3,13.2,,,,,,,,,,,
3487.jpg,2160,3840,2020-08-25T14:19:33.158633,,mavic,DJI_0032,DJI_0032.MP4,5760.0,,DJI_0032_merged.MP4_image5643.png,2020-08-25 12:19:33,47.672,9.267919,9.799522096921669,2.719927045149754,-1.5999570853822083,2.1999409924005366,0.0,68.4,51.3,13.2,,,,,,,,,,,
3488.jpg,2160,3840,2020-08-25T14:19:33.659133,,mavic,DJI_0032,DJI_0032.MP4,5775.0,,DJI_0032_merged.MP4_image5674.png,2020-08-25 12:19:34,47.671986,9.26795,9.699526973483694,2.719927045149754,-1.5999570853822083,2.1999409924005366,0.0,64.1,47.0,13.8,,,,,,,,,,,
3489.jpg,2160,3840,2020-08-25T14:19:34.159633,,mavic,DJI_0032,DJI_0032.MP4,5790.0,,DJI_0032_merged.MP4_image5674.png,2020-08-25 12:19:34,47.671986,9.26795,9.699526973483694,2.719927045149754,-1.5999570853822083,2.1999409924005366,0.0,64.1,47.0,13.8,,,,,,,,,,,
3490.jpg,2160,3840,2020-08-25T14:19:34.660133,,mavic,DJI_0032,DJI_0032.MP4,5805.0,,DJI_0032_merged.MP4_image5702.png,2020-08-25 12:19:35,47.671971,9.26798,9.799522096921669,2.719927045149754,-1.5999570853822083,2.1999409924005366,0.0,59.8,42.7,14.4,,,,,,,,,,,
3491.jpg,2160,3840,2020-08-25T14:19:35.160633,,mavic,DJI_0032,DJI_0032.MP4,5820.0,,DJI_0032_merged.MP4_image5702.png,2020-08-25 12:19:35,47.671971,9.26798,9.799522096921669,2.719927045149754,-1.5999570853822083,2.1999409924005366,0.0,59.8,42.7,14.4,,,,,,,,,,,
3492.jpg,2160,3840,2020-08-25T14:19:35.661133,,mavic,DJI_0032,DJI_0032.MP4,5835.0,,DJI_0032_merged.MP4_image5731.png,2020-08-25 12:19:36,47.671957,9.26801,9.699526973483694,2.719927045149754,-1.5999570853822083,2.1999409924005366,0.0,55.6,38.3,15.1,,,,,,,,,,,
3493.jpg,2160,3840,2020-08-25T14:19:36.161633,,mavic,DJI_0032,DJI_0032.MP4,5850.0,,DJI_0032_merged.MP4_image5731.png,2020-08-25 12:19:36,47.671957,9.26801,9.699526973483694,2.719927045149754,-1.5999570853822083,2.1999409924005366,0.0,55.6,38.3,15.1,,,,,,,,,,,
3494.jpg,2160,3840,2020-08-25T14:19:36.662133,,mavic,DJI_0032,DJI_0032.MP4,5865.0,,DJI_0032_merged.MP4_image5759.png,2020-08-25 12:19:37,47.671942,9.26804,9.699526973483694,2.719927045149754,-1.5999570853822083,2.1999409924005366,0.0,51.3,34.0,15.9,,,,,,,,,,,
3495.jpg,2160,3840,2020-08-25T14:19:37.162633,,mavic,DJI_0032,DJI_0032.MP4,5880.0,,DJI_0032_merged.MP4_image5759.png,2020-08-25 12:19:37,47.671942,9.26804,9.699526973483694,2.719927045149754,-1.5999570853822083,2.1999409924005366,0.0,51.3,34.0,15.9,,,,,,,,,,,
3496.jpg,2160,3840,2020-08-25T14:19:37.663133,,mavic,DJI_0032,DJI_0032.MP4,5895.0,,DJI_0032_merged.MP4_image5790.png,2020-08-25 12:19:38,47.671928,9.26807,9.599531850045718,2.7219269915064817,-1.5999570853822083,2.1999409924005366,-0.09999731783638802,47.0,29.7,16.6,,,,,,,,,,,
3497.jpg,2160,3840,2020-08-25T14:19:38.163633,,mavic,DJI_0032,DJI_0032.MP4,5910.0,,DJI_0032_merged.MP4_image5790.png,2020-08-25 12:19:38,47.671928,9.26807,9.599531850045718,2.7219269915064817,-1.5999570853822083,2.1999409924005366,-0.09999731783638802,47.0,29.7,16.6,,,,,,,,,,,
3498.jpg,2160,3840,2020-08-25T14:19:38.664133,,mavic,DJI_0032,DJI_0032.MP4,5925.0,,DJI_0032_merged.MP4_image5818.png,2020-08-25 12:19:39,47.671913,9.268101,9.699526973483694,2.7819253822083145,-1.6999544032185963,2.1999409924005366,-0.09999731783638802,42.7,25.4,17.2,,,,,,,,,,,
3499.jpg,2160,3840,2020-08-25T14:19:39.164633,,mavic,DJI_0032,DJI_0032.MP4,5940.0,,DJI_0032_merged.MP4_image5818.png,2020-08-25 12:19:39,47.671913,9.268101,9.699526973483694,2.7819253822083145,-1.6999544032185963,2.1999409924005366,-0.09999731783638802,42.7,25.4,17.2,,,,,,,,,,,
3500.jpg,2160,3840,2020-08-25T14:19:39.665133,,mavic,DJI_0032,DJI_0032.MP4,5955.0,,DJI_0032_merged.MP4_image5850.png,2020-08-25 12:19:40,47.671898,9.268131,9.699526973483694,2.7819253822083145,-1.6999544032185963,2.1999409924005366,-0.09999731783638802,38.3,21.0,17.9,,,,,,,,,,,
3501.jpg,2160,3840,2020-08-25T14:19:40.165633,,mavic,DJI_0032,DJI_0032.MP4,5970.0,,DJI_0032_merged.MP4_image5850.png,2020-08-25 12:19:40,47.671898,9.268131,9.699526973483694,2.7819253822083145,-1.6999544032185963,2.1999409924005366,-0.09999731783638802,38.3,21.0,17.9,,,,,,,,,,,
3502.jpg,2160,3840,2020-08-25T14:19:40.666133,,mavic,DJI_0032,DJI_0032.MP4,5985.0,,DJI_0032_merged.MP4_image5882.png,2020-08-25 12:19:41,47.671884,9.268161,9.799522096921669,2.719927045149754,-1.5999570853822083,2.1999409924005366,0.0,33.9,16.7,18.4,,,,,,,,,,,
3503.jpg,2160,3840,2020-08-25T14:19:41.166633,,mavic,DJI_0032,DJI_0032.MP4,6000.0,,DJI_0032_merged.MP4_image5882.png,2020-08-25 12:19:41,47.671884,9.268161,9.799522096921669,2.719927045149754,-1.5999570853822083,2.1999409924005366,0.0,33.9,16.7,18.4,,,,,,,,,,,
3504.jpg,2160,3840,2020-08-25T14:19:41.667133,,mavic,DJI_0032,DJI_0032.MP4,6015.0,,DJI_0032_merged.MP4_image5910.png,2020-08-25 12:19:42,47.671869,9.268192,9.899517220359646,2.719927045149754,-1.5999570853822083,2.1999409924005366,0.0,29.6,12.4,18.9,,,,,,,,,,,
3505.jpg,2160,3840,2020-08-25T14:19:42.167633,,mavic,DJI_0032,DJI_0032.MP4,6030.0,,DJI_0032_merged.MP4_image5910.png,2020-08-25 12:19:42,47.671869,9.268192,9.899517220359646,2.719927045149754,-1.5999570853822083,2.1999409924005366,0.0,29.6,12.4,18.9,,,,,,,,,,,
3506.jpg,2160,3840,2020-08-25T14:19:42.668133,,mavic,DJI_0032,DJI_0032.MP4,6045.0,,DJI_0032_merged.MP4_image5941.png,2020-08-25 12:19:43,47.671854,9.268222,9.899517220359646,2.719927045149754,-1.5999570853822083,2.1999409924005366,0.0,25.4,8.1,19.0,,,,,,,,,,,
3507.jpg,2160,3840,2020-08-25T14:19:43.168633,,mavic,DJI_0032,DJI_0032.MP4,6060.0,,DJI_0032_merged.MP4_image5941.png,2020-08-25 12:19:43,47.671854,9.268222,9.899517220359646,2.719927045149754,-1.5999570853822083,2.1999409924005366,0.0,25.4,8.1,19.0,,,,,,,,,,,
3508.jpg,2160,3840,2020-08-25T14:19:43.669133,,mavic,DJI_0032,DJI_0032.MP4,6075.0,,DJI_0032_merged.MP4_image5973.png,2020-08-25 12:19:44,47.671839,9.268251,9.999512343797623,2.8019248457755923,-1.5999570853822083,2.299938310236924,0.0,21.0,3.8,18.9,,,,,,,,,,,
3509.jpg,2160,3840,2020-08-25T14:19:44.169633,,mavic,DJI_0032,DJI_0032.MP4,6090.0,,DJI_0032_merged.MP4_image5973.png,2020-08-25 12:19:44,47.671839,9.268251,9.999512343797623,2.8019248457755923,-1.5999570853822083,2.299938310236924,0.0,21.0,3.8,18.9,,,,,,,,,,,
3510.jpg,2160,3840,2020-08-25T14:19:44.670133,,mavic,DJI_0032,DJI_0032.MP4,6105.0,,DJI_0032_merged.MP4_image6001.png,2020-08-25 12:19:45,47.671823,9.268285,9.899517220359646,2.8019248457755923,-1.5999570853822083,2.299938310236924,0.0,16.3,359.1,18.7,,,,,,,,,,,
3511.jpg,2160,3840,2020-08-25T14:19:45.170633,,mavic,DJI_0032,DJI_0032.MP4,6120.0,,DJI_0032_merged.MP4_image6001.png,2020-08-25 12:19:45,47.671823,9.268285,9.899517220359646,2.8019248457755923,-1.5999570853822083,2.299938310236924,0.0,16.3,359.1,18.7,,,,,,,,,,,
3512.jpg,2160,3840,2020-08-25T14:19:45.671133,,mavic,DJI_0032,DJI_0032.MP4,6135.0,,DJI_0032_merged.MP4_image6029.png,2020-08-25 12:19:46,47.67181,9.268313,9.899517220359646,2.8019248457755923,-1.5999570853822083,2.299938310236924,0.0,12.5,356.1,18.3,,,,,,,,,,,
3513.jpg,2160,3840,2020-08-25T14:19:46.171633,,mavic,DJI_0032,DJI_0032.MP4,6150.0,,DJI_0032_merged.MP4_image6029.png,2020-08-25 12:19:46,47.67181,9.268313,9.899517220359646,2.8019248457755923,-1.5999570853822083,2.299938310236924,0.0,12.5,356.1,18.3,,,,,,,,,,,
3514.jpg,2160,3840,2020-08-25T14:19:46.672133,,mavic,DJI_0032,DJI_0032.MP4,6165.0,,DJI_0032_merged.MP4_image6061.png,2020-08-25 12:19:47,47.671796,9.268344,9.899517220359646,2.8019248457755923,-1.5999570853822083,2.299938310236924,0.0,8.3,350.9,17.5,,,,,,,,,,,
3515.jpg,2160,3840,2020-08-25T14:19:47.172633,,mavic,DJI_0032,DJI_0032.MP4,6180.0,,DJI_0032_merged.MP4_image6061.png,2020-08-25 12:19:47,47.671796,9.268344,9.899517220359646,2.8019248457755923,-1.5999570853822083,2.299938310236924,0.0,8.3,350.9,17.5,,,,,,,,,,,
3516.jpg,2160,3840,2020-08-25T14:19:47.673133,,mavic,DJI_0032,DJI_0032.MP4,6195.0,,DJI_0032_merged.MP4_image6096.png,2020-08-25 12:19:48,47.671781,9.268375,9.799522096921669,2.719927045149754,-1.5999570853822083,2.1999409924005366,0.0,3.9,346.6,16.7,,,,,,,,,,,
3517.jpg,2160,3840,2020-08-25T14:19:48.173633,,mavic,DJI_0032,DJI_0032.MP4,6210.0,,DJI_0032_merged.MP4_image6096.png,2020-08-25 12:19:48,47.671781,9.268375,9.799522096921669,2.719927045149754,-1.5999570853822083,2.1999409924005366,0.0,3.9,346.6,16.7,,,,,,,,,,,
3518.jpg,2160,3840,2020-08-25T14:19:48.674133,,mavic,DJI_0032,DJI_0032.MP4,6225.0,,DJI_0032_merged.MP4_image6124.png,2020-08-25 12:19:49,47.671772,9.268394,9.999512343797623,0.09999731783638802,-0.09999731783638802,0.0,0.0,2.5,343.2,16.0,,,,,,,,,,,
3519.jpg,2160,3840,2020-08-25T14:19:49.174633,,mavic,DJI_0032,DJI_0032.MP4,6240.0,,DJI_0032_merged.MP4_image6124.png,2020-08-25 12:19:49,47.671772,9.268394,9.999512343797623,0.09999731783638802,-0.09999731783638802,0.0,0.0,2.5,343.2,16.0,,,,,,,,,,,
3520.jpg,2160,3840,2020-08-25T14:19:49.675133,,mavic,DJI_0032,DJI_0032.MP4,6255.0,,DJI_0032_merged.MP4_image6159.png,2020-08-25 12:19:50,47.671784,9.268391,9.999512343797623,2.9019221636119803,2.8999222172552526,-0.09999731783638802,0.0,2.7,342.9,16.1,,,,,,,,,,,
3521.jpg,2160,3840,2020-08-25T14:19:50.175633,,mavic,DJI_0032,DJI_0032.MP4,6270.0,,DJI_0032_merged.MP4_image6159.png,2020-08-25 12:19:50,47.671784,9.268391,9.999512343797623,2.9019221636119803,2.8999222172552526,-0.09999731783638802,0.0,2.7,342.9,16.1,,,,,,,,,,,
3522.jpg,2160,3840,2020-08-25T14:19:50.676133,,mavic,DJI_0032,DJI_0032.MP4,6285.0,,DJI_0032_merged.MP4_image6194.png,2020-08-25 12:19:51,47.671814,9.268391,9.899517220359646,2.8999222172552526,2.8999222172552526,0.0,0.0,9.1,347.4,17.4,,,,,,,,,,,
3523.jpg,2160,3840,2020-08-25T14:19:51.176633,,mavic,DJI_0032,DJI_0032.MP4,6300.0,,DJI_0032_merged.MP4_image6194.png,2020-08-25 12:19:51,47.671814,9.268391,9.899517220359646,2.8999222172552526,2.8999222172552526,0.0,0.0,9.1,347.4,17.4,,,,,,,,,,,
3653.jpg,2160,3840,2020-08-25T14:45:12.083633,,mavic,DJI_0038,DJI_0038.MP4,3510.0,,DJI_0037_AND_0038_AND_0039_AND_0040.MP4_image12405.png,2020-08-25 12:45:12,47.672728,9.269032,40.198039622066446,0.0,0.0,0.0,0.0,284.8,279.4,34.1,,,,,,,,,,,
3654.jpg,2160,3840,2020-08-25T14:45:12.584133,,mavic,DJI_0038,DJI_0038.MP4,3525.0,,DJI_0037_AND_0038_AND_0039_AND_0040.MP4_image12435.png,2020-08-25 12:45:13,47.672727,9.269032,40.198039622066446,0.0,0.0,0.0,0.0,284.8,279.4,34.1,,,,,,,,,,,
3655.jpg,2160,3840,2020-08-25T14:45:13.084633,,mavic,DJI_0038,DJI_0038.MP4,3540.0,,DJI_0037_AND_0038_AND_0039_AND_0040.MP4_image12435.png,2020-08-25 12:45:13,47.672727,9.269032,40.198039622066446,0.0,0.0,0.0,0.0,284.8,279.4,34.1,,,,,,,,,,,
3656.jpg,2160,3840,2020-08-25T14:45:13.585133,,mavic,DJI_0038,DJI_0038.MP4,3555.0,,DJI_0037_AND_0038_AND_0039_AND_0040.MP4_image12468.png,2020-08-25 12:45:14,47.672727,9.269031,40.198039622066446,0.0,0.0,0.0,0.0,284.8,279.5,34.1,,,,,,,,,,,
3657.jpg,2160,3840,2020-08-25T14:45:14.085633,,mavic,DJI_0038,DJI_0038.MP4,3570.0,,DJI_0037_AND_0038_AND_0039_AND_0040.MP4_image12468.png,2020-08-25 12:45:14,47.672727,9.269031,40.198039622066446,0.0,0.0,0.0,0.0,284.8,279.5,34.1,,,,,,,,,,,
3658.jpg,2160,3840,2020-08-25T14:45:14.586133,,mavic,DJI_0038,DJI_0038.MP4,3585.0,,DJI_0037_AND_0038_AND_0039_AND_0040.MP4_image12501.png,2020-08-25 12:45:15,47.672726,9.26903,40.09804449862847,0.0,0.0,0.0,0.0,284.9,279.5,34.1,,,,,,,,,,,
3716.jpg,2160,3840,2020-08-25T14:53:03.253633,,mavic,DJI_0039,DJI_0039.MP4,8610.0,,DJI_0037_AND_0038_AND_0039_AND_0040.MP4_image26567.png,2020-08-25 12:53:03,47.672912,9.267566,39.798059128314534,0.6999812248547161,0.6999812248547161,0.0,0.0,96.5,91.9,34.0,,,,,,,,,,,
3717.jpg,2160,3840,2020-08-25T14:53:03.754133,,mavic,DJI_0039,DJI_0039.MP4,8625.0,,DJI_0037_AND_0038_AND_0039_AND_0040.MP4_image26597.png,2020-08-25 12:53:04,47.672933,9.267564,39.99804937519049,3.3019114349575323,3.2999114886008045,-0.09999731783638802,0.0,97.4,91.9,34.0,,,,,,,,,,,
3718.jpg,2160,3840,2020-08-25T14:53:04.254633,,mavic,DJI_0039,DJI_0039.MP4,8640.0,,DJI_0037_AND_0038_AND_0039_AND_0040.MP4_image26597.png,2020-08-25 12:53:04,47.672933,9.267564,39.99804937519049,3.3019114349575323,3.2999114886008045,-0.09999731783638802,0.0,97.4,91.9,34.0,,,,,,,,,,,
3719.jpg,2160,3840,2020-08-25T14:53:04.755133,,mavic,DJI_0039,DJI_0039.MP4,8655.0,,DJI_0037_AND_0038_AND_0039_AND_0040.MP4_image26630.png,2020-08-25 12:53:05,47.672962,9.267562,40.09804449862847,2.9019221636119803,2.8999222172552526,-0.09999731783638802,0.0,97.5,92.0,34.0,,,,,,,,,,,
3720.jpg,2160,3840,2020-08-25T14:53:05.255633,,mavic,DJI_0039,DJI_0039.MP4,8670.0,,DJI_0037_AND_0038_AND_0039_AND_0040.MP4_image26630.png,2020-08-25 12:53:05,47.672962,9.267562,40.09804449862847,2.9019221636119803,2.8999222172552526,-0.09999731783638802,0.0,97.5,92.0,34.0,,,,,,,,,,,
3721.jpg,2160,3840,2020-08-25T14:53:05.756133,,mavic,DJI_0039,DJI_0039.MP4,8685.0,,DJI_0037_AND_0038_AND_0039_AND_0040.MP4_image26654.png,2020-08-25 12:53:06,47.672988,9.26756,40.09804449862847,2.699927581582476,2.699927581582476,0.0,0.0,98.0,92.2,34.0,,,,,,,,,,,
3722.jpg,2160,3840,2020-08-25T14:53:06.256633,,mavic,DJI_0039,DJI_0039.MP4,8700.0,,DJI_0037_AND_0038_AND_0039_AND_0040.MP4_image26654.png,2020-08-25 12:53:06,47.672988,9.26756,40.09804449862847,2.699927581582476,2.699927581582476,0.0,0.0,98.0,92.2,34.0,,,,,,,,,,,
4013.jpg,2160,3840,2021-08-20T14:57:12.101633,,mavic,NorthSea_Fri_DJI_0110,NorthSea_Fri_DJI_0110.MP4,4050.0,,DJI_0110.MP4_image4011.png,2021-08-20 12:57:12,53.720244098744494,7.16807707603539,17.099166107893936,0.0,0.0,0.0,0.0,280.9,271.4,1.6,,,,,,,,,,,
4014.jpg,2160,3840,2021-08-20T14:57:12.602133,,mavic,NorthSea_Fri_DJI_0110,NorthSea_Fri_DJI_0110.MP4,4065.0,,DJI_0110.MP4_image4041.png,2021-08-20 12:57:13,53.7202435647807,7.168075974346809,17.099166107893936,0.0,0.0,0.0,0.0,280.9,271.4,1.6,,,,,,,,,,,
4015.jpg,2160,3840,2021-08-20T14:57:13.102633,,mavic,NorthSea_Fri_DJI_0110,NorthSea_Fri_DJI_0110.MP4,4080.0,,DJI_0110.MP4_image4041.png,2021-08-20 12:57:13,53.7202435647807,7.168075974346809,17.099166107893936,0.0,0.0,0.0,0.0,280.9,271.4,1.6,,,,,,,,,,,
4016.jpg,2160,3840,2021-08-20T14:57:13.603133,,mavic,NorthSea_Fri_DJI_0110,NorthSea_Fri_DJI_0110.MP4,4095.0,,DJI_0110.MP4_image4071.png,2021-08-20 12:57:14,53.7202440903146,7.16807549762792,17.19916123133191,0.0,0.0,0.0,0.0,280.9,271.4,1.6,,,,,,,,,,,
4017.jpg,2160,3840,2021-08-20T14:57:14.103633,,mavic,NorthSea_Fri_DJI_0110,NorthSea_Fri_DJI_0110.MP4,4110.0,,DJI_0110.MP4_image4071.png,2021-08-20 12:57:14,53.7202440903146,7.16807549762792,17.19916123133191,0.0,0.0,0.0,0.0,280.9,271.4,1.6,,,,,,,,,,,
4018.jpg,2160,3840,2021-08-20T14:57:14.604133,,mavic,NorthSea_Fri_DJI_0110,NorthSea_Fri_DJI_0110.MP4,4125.0,,DJI_0110.MP4_image4101.png,2021-08-20 12:57:15,53.7202441033365,7.1680750528756105,17.099166107893936,0.0,0.0,0.0,0.0,281.0,271.4,1.6,,,,,,,,,,,
4019.jpg,2160,3840,2021-08-20T14:57:15.104633,,mavic,NorthSea_Fri_DJI_0110,NorthSea_Fri_DJI_0110.MP4,4140.0,,DJI_0110.MP4_image4101.png,2021-08-20 12:57:15,53.7202441033365,7.1680750528756105,17.099166107893936,0.0,0.0,0.0,0.0,281.0,271.4,1.6,,,,,,,,,,,
4020.jpg,2160,3840,2021-08-20T14:57:15.605133,,mavic,NorthSea_Fri_DJI_0110,NorthSea_Fri_DJI_0110.MP4,4155.0,,DJI_0110.MP4_image4132.png,2021-08-20 12:57:16,53.7202441445951,7.16807447052802,17.099166107893936,0.0,0.0,0.0,0.0,280.9,271.4,1.6,,,,,,,,,,,
4021.jpg,2160,3840,2021-08-20T14:57:16.105633,,mavic,NorthSea_Fri_DJI_0110,NorthSea_Fri_DJI_0110.MP4,4170.0,,DJI_0110.MP4_image4132.png,2021-08-20 12:57:16,53.7202441445951,7.16807447052802,17.099166107893936,0.0,0.0,0.0,0.0,280.9,271.4,1.6,,,,,,,,,,,
4022.jpg,2160,3840,2021-08-20T14:57:16.606133,,mavic,NorthSea_Fri_DJI_0110,NorthSea_Fri_DJI_0110.MP4,4185.0,,DJI_0110.MP4_image4162.png,2021-08-20 12:57:17,53.72024345704221,7.16807358241323,17.19916123133191,0.0,0.0,0.0,0.0,281.0,271.4,1.6,,,,,,,,,,,
4023.jpg,2160,3840,2021-08-20T14:57:17.106633,,mavic,NorthSea_Fri_DJI_0110,NorthSea_Fri_DJI_0110.MP4,4200.0,,DJI_0110.MP4_image4162.png,2021-08-20 12:57:17,53.72024345704221,7.16807358241323,17.19916123133191,0.0,0.0,0.0,0.0,281.0,271.4,1.6,,,,,,,,,,,
4024.jpg,2160,3840,2021-08-20T14:57:17.607133,,mavic,NorthSea_Fri_DJI_0110,NorthSea_Fri_DJI_0110.MP4,4215.0,,DJI_0110.MP4_image4189.png,2021-08-20 12:57:18,53.7202436535348,7.16807328452184,17.099166107893936,0.0,0.0,0.0,0.0,280.9,271.4,1.6,,,,,,,,,,,
4025.jpg,2160,3840,2021-08-20T14:57:18.107633,,mavic,NorthSea_Fri_DJI_0110,NorthSea_Fri_DJI_0110.MP4,4230.0,,DJI_0110.MP4_image4189.png,2021-08-20 12:57:18,53.7202436535348,7.16807328452184,17.099166107893936,0.0,0.0,0.0,0.0,280.9,271.4,1.6,,,,,,,,,,,
4026.jpg,2160,3840,2021-08-20T14:57:18.608133,,mavic,NorthSea_Fri_DJI_0110,NorthSea_Fri_DJI_0110.MP4,4245.0,,DJI_0110.MP4_image4222.png,2021-08-20 12:57:19,53.720244885057895,7.16807315109617,17.099166107893936,0.0,0.0,0.0,0.0,280.9,271.4,1.6,,,,,,,,,,,
4027.jpg,2160,3840,2021-08-20T14:57:19.108633,,mavic,NorthSea_Fri_DJI_0110,NorthSea_Fri_DJI_0110.MP4,4260.0,,DJI_0110.MP4_image4222.png,2021-08-20 12:57:19,53.720244885057895,7.16807315109617,17.099166107893936,0.0,0.0,0.0,0.0,280.9,271.4,1.6,,,,,,,,,,,
4028.jpg,2160,3840,2021-08-20T14:57:19.609133,,mavic,NorthSea_Fri_DJI_0110,NorthSea_Fri_DJI_0110.MP4,4275.0,,DJI_0110.MP4_image4253.png,2021-08-20 12:57:20,53.7202445407331,7.168073953966769,17.099166107893936,0.0,0.0,0.0,0.0,280.9,271.4,1.6,,,,,,,,,,,
4029.jpg,2160,3840,2021-08-20T14:57:20.109633,,mavic,NorthSea_Fri_DJI_0110,NorthSea_Fri_DJI_0110.MP4,4290.0,,DJI_0110.MP4_image4253.png,2021-08-20 12:57:20,53.7202445407331,7.168073953966769,17.099166107893936,0.0,0.0,0.0,0.0,280.9,271.4,1.6,,,,,,,,,,,
4030.jpg,2160,3840,2021-08-20T14:57:20.610133,,mavic,NorthSea_Fri_DJI_0110,NorthSea_Fri_DJI_0110.MP4,4305.0,,DJI_0110.MP4_image4283.png,2021-08-20 12:57:21,53.720244884166895,7.16807465259851,17.099166107893936,0.0,0.0,0.0,0.0,280.9,271.4,1.6,,,,,,,,,,,
4031.jpg,2160,3840,2021-08-20T14:57:21.110633,,mavic,NorthSea_Fri_DJI_0110,NorthSea_Fri_DJI_0110.MP4,4320.0,,DJI_0110.MP4_image4283.png,2021-08-20 12:57:21,53.720244884166895,7.16807465259851,17.099166107893936,0.0,0.0,0.0,0.0,280.9,271.4,1.6,,,,,,,,,,,
4032.jpg,2160,3840,2021-08-20T14:57:21.611133,,mavic,NorthSea_Fri_DJI_0110,NorthSea_Fri_DJI_0110.MP4,4335.0,,DJI_0110.MP4_image4313.png,2021-08-20 12:57:22,53.72024590658671,7.16807585342982,17.19916123133191,0.0,0.0,0.0,0.0,280.9,271.4,1.6,,,,,,,,,,,
4033.jpg,2160,3840,2021-08-20T14:57:22.111633,,mavic,NorthSea_Fri_DJI_0110,NorthSea_Fri_DJI_0110.MP4,4350.0,,DJI_0110.MP4_image4313.png,2021-08-20 12:57:22,53.72024590658671,7.16807585342982,17.19916123133191,0.0,0.0,0.0,0.0,280.9,271.4,1.6,,,,,,,,,,,
4034.jpg,2160,3840,2021-08-20T14:57:22.612133,,mavic,NorthSea_Fri_DJI_0110,NorthSea_Fri_DJI_0110.MP4,4365.0,,DJI_0110.MP4_image4337.png,2021-08-20 12:57:23,53.720245838119205,7.168076861071791,17.099166107893936,0.0,0.0,0.0,0.0,280.9,271.4,1.6,,,,,,,,,,,
4035.jpg,2160,3840,2021-08-20T14:57:23.112633,,mavic,NorthSea_Fri_DJI_0110,NorthSea_Fri_DJI_0110.MP4,4380.0,,DJI_0110.MP4_image4337.png,2021-08-20 12:57:23,53.720245838119205,7.168076861071791,17.099166107893936,0.0,0.0,0.0,0.0,280.9,271.4,1.6,,,,,,,,,,,
4036.jpg,2160,3840,2021-08-20T14:57:23.613133,,mavic,NorthSea_Fri_DJI_0110,NorthSea_Fri_DJI_0110.MP4,4395.0,,DJI_0110.MP4_image4371.png,2021-08-20 12:57:24,53.7202458119385,7.168076173558821,17.099166107893936,0.0,0.0,0.0,0.0,280.9,271.4,1.6,,,,,,,,,,,
4037.jpg,2160,3840,2021-08-20T14:57:24.113633,,mavic,NorthSea_Fri_DJI_0110,NorthSea_Fri_DJI_0110.MP4,4410.0,,DJI_0110.MP4_image4371.png,2021-08-20 12:57:24,53.7202458119385,7.168076173558821,17.099166107893936,0.0,0.0,0.0,0.0,280.9,271.4,1.6,,,,,,,,,,,
4038.jpg,2160,3840,2021-08-20T14:57:24.614133,,mavic,NorthSea_Fri_DJI_0110,NorthSea_Fri_DJI_0110.MP4,4425.0,,DJI_0110.MP4_image4401.png,2021-08-20 12:57:25,53.720246033858,7.168076406590519,17.099166107893936,0.0,0.0,0.0,0.0,280.9,271.4,1.6,,,,,,,,,,,
4039.jpg,2160,3840,2021-08-20T14:57:25.114633,,mavic,NorthSea_Fri_DJI_0110,NorthSea_Fri_DJI_0110.MP4,4440.0,,DJI_0110.MP4_image4401.png,2021-08-20 12:57:25,53.720246033858,7.168076406590519,17.099166107893936,0.0,0.0,0.0,0.0,280.9,271.4,1.6,,,,,,,,,,,
4040.jpg,2160,3840,2021-08-20T14:57:25.615133,,mavic,NorthSea_Fri_DJI_0110,NorthSea_Fri_DJI_0110.MP4,4455.0,,DJI_0110.MP4_image4431.png,2021-08-20 12:57:26,53.7202459680634,7.16807658356487,17.19916123133191,0.0,0.0,0.0,0.0,280.9,271.4,1.6,,,,,,,,,,,
4041.jpg,2160,3840,2021-08-20T14:57:26.115633,,mavic,NorthSea_Fri_DJI_0110,NorthSea_Fri_DJI_0110.MP4,4470.0,,DJI_0110.MP4_image4431.png,2021-08-20 12:57:26,53.7202459680634,7.16807658356487,17.19916123133191,0.0,0.0,0.0,0.0,280.9,271.4,1.6,,,,,,,,,,,
4042.jpg,2160,3840,2021-08-20T14:57:26.616133,,mavic,NorthSea_Fri_DJI_0110,NorthSea_Fri_DJI_0110.MP4,4485.0,,DJI_0110.MP4_image4461.png,2021-08-20 12:57:27,53.72024531827379,7.168076999593611,17.19916123133191,0.0,0.0,0.0,0.0,280.9,271.4,1.6,,,,,,,,,,,
4043.jpg,2160,3840,2021-08-20T14:57:27.116633,,mavic,NorthSea_Fri_DJI_0110,NorthSea_Fri_DJI_0110.MP4,4500.0,,DJI_0110.MP4_image4461.png,2021-08-20 12:57:27,53.72024531827379,7.168076999593611,17.19916123133191,0.0,0.0,0.0,0.0,280.9,271.4,1.6,,,,,,,,,,,
4044.jpg,2160,3840,2021-08-20T14:57:27.617133,,mavic,NorthSea_Fri_DJI_0110,NorthSea_Fri_DJI_0110.MP4,4515.0,,DJI_0110.MP4_image4492.png,2021-08-20 12:57:28,53.72024470460261,7.1680772502301,17.19916123133191,0.0,0.0,0.0,0.0,280.9,271.4,1.6,,,,,,,,,,,
4045.jpg,2160,3840,2021-08-20T14:57:28.117633,,mavic,NorthSea_Fri_DJI_0110,NorthSea_Fri_DJI_0110.MP4,4530.0,,DJI_0110.MP4_image4492.png,2021-08-20 12:57:28,53.72024470460261,7.1680772502301,17.19916123133191,0.0,0.0,0.0,0.0,280.9,271.4,1.6,,,,,,,,,,,
4046.jpg,2160,3840,2021-08-20T14:57:28.618133,,mavic,NorthSea_Fri_DJI_0110,NorthSea_Fri_DJI_0110.MP4,4545.0,,DJI_0110.MP4_image4522.png,2021-08-20 12:57:29,53.72024396873179,7.16807745268504,17.099166107893936,0.0,0.0,0.0,0.0,280.9,271.4,1.6,,,,,,,,,,,
4047.jpg,2160,3840,2021-08-20T14:57:29.118633,,mavic,NorthSea_Fri_DJI_0110,NorthSea_Fri_DJI_0110.MP4,4560.0,,DJI_0110.MP4_image4522.png,2021-08-20 12:57:29,53.72024396873179,7.16807745268504,17.099166107893936,0.0,0.0,0.0,0.0,280.9,271.4,1.6,,,,,,,,,,,
4048.jpg,2160,3840,2021-08-20T14:57:29.619133,,mavic,NorthSea_Fri_DJI_0110,NorthSea_Fri_DJI_0110.MP4,4575.0,,DJI_0110.MP4_image4552.png,2021-08-20 12:57:30,53.72024339261829,7.16807782933465,17.099166107893936,0.0,0.0,0.0,0.0,281.0,271.4,1.6,,,,,,,,,,,
4049.jpg,2160,3840,2021-08-20T14:57:30.119633,,mavic,NorthSea_Fri_DJI_0110,NorthSea_Fri_DJI_0110.MP4,4590.0,,DJI_0110.MP4_image4552.png,2021-08-20 12:57:30,53.72024339261829,7.16807782933465,17.099166107893936,0.0,0.0,0.0,0.0,281.0,271.4,1.6,,,,,,,,,,,
4050.jpg,2160,3840,2021-08-20T14:57:30.620133,,mavic,NorthSea_Fri_DJI_0110,NorthSea_Fri_DJI_0110.MP4,4605.0,,DJI_0110.MP4_image4582.png,2021-08-20 12:57:31,53.7202429086858,7.16807821200699,17.099166107893936,0.0,0.0,0.0,0.0,280.9,271.4,1.6,,,,,,,,,,,
4051.jpg,2160,3840,2021-08-20T14:57:31.120633,,mavic,NorthSea_Fri_DJI_0110,NorthSea_Fri_DJI_0110.MP4,4620.0,,DJI_0110.MP4_image4582.png,2021-08-20 12:57:31,53.7202429086858,7.16807821200699,17.099166107893936,0.0,0.0,0.0,0.0,280.9,271.4,1.6,,,,,,,,,,,
4052.jpg,2160,3840,2021-08-20T14:57:31.621133,,mavic,NorthSea_Fri_DJI_0110,NorthSea_Fri_DJI_0110.MP4,4635.0,,DJI_0110.MP4_image4613.png,2021-08-20 12:57:32,53.720242606236496,7.16807769729874,17.099166107893936,0.0,0.0,0.0,0.0,280.9,271.4,1.6,,,,,,,,,,,
4053.jpg,2160,3840,2021-08-20T14:57:32.121633,,mavic,NorthSea_Fri_DJI_0110,NorthSea_Fri_DJI_0110.MP4,4650.0,,DJI_0110.MP4_image4613.png,2021-08-20 12:57:32,53.720242606236496,7.16807769729874,17.099166107893936,0.0,0.0,0.0,0.0,280.9,271.4,1.6,,,,,,,,,,,
4054.jpg,2160,3840,2021-08-20T14:57:32.622133,,mavic,NorthSea_Fri_DJI_0110,NorthSea_Fri_DJI_0110.MP4,4665.0,,DJI_0110.MP4_image4643.png,2021-08-20 12:57:33,53.7202428032089,7.16807775474601,17.19916123133191,0.0,0.0,0.0,0.0,280.9,271.4,1.6,,,,,,,,,,,
4237.jpg,2160,3840,2020-08-25T15:02:34.570133,,mavic,DJI_0041,DJI_0041.MP4,3105.0,,DJI_0041_AND_0042_AND_0043.MP4_image2988.png,2020-08-25 13:02:35,47.672062,9.271737,50.09755684242609,0.22399399195350914,0.09999731783638802,0.19999463567277603,0.0,307.8,299.3,20.2,,,,,,,,,,,
4238.jpg,2160,3840,2020-08-25T15:02:35.070633,,mavic,DJI_0041,DJI_0041.MP4,3120.0,,DJI_0041_AND_0042_AND_0043.MP4_image2988.png,2020-08-25 13:02:35,47.672062,9.271737,50.09755684242609,0.22399399195350914,0.09999731783638802,0.19999463567277603,0.0,307.8,299.3,20.2,,,,,,,,,,,
4239.jpg,2160,3840,2020-08-25T15:02:35.571133,,mavic,DJI_0041,DJI_0041.MP4,3135.0,,DJI_0041_AND_0042_AND_0043.MP4_image3018.png,2020-08-25 13:02:36,47.672064,9.271739,50.197551965864065,0.0,0.0,0.0,0.0,307.8,299.4,20.2,,,,,,,,,,,
4240.jpg,2160,3840,2020-08-25T15:02:36.071633,,mavic,DJI_0041,DJI_0041.MP4,3150.0,,DJI_0041_AND_0042_AND_0043.MP4_image3018.png,2020-08-25 13:02:36,47.672064,9.271739,50.197551965864065,0.0,0.0,0.0,0.0,307.8,299.4,20.2,,,,,,,,,,,
4241.jpg,2160,3840,2020-08-25T15:02:36.572133,,mavic,DJI_0041,DJI_0041.MP4,3165.0,,DJI_0041_AND_0042_AND_0043.MP4_image3052.png,2020-08-25 13:02:37,47.672064,9.271737,50.197551965864065,0.09999731783638802,0.0,-0.09999731783638802,0.0,308.0,299.5,20.2,,,,,,,,,,,
4242.jpg,2160,3840,2020-08-25T15:02:37.072633,,mavic,DJI_0041,DJI_0041.MP4,3180.0,,DJI_0041_AND_0042_AND_0043.MP4_image3052.png,2020-08-25 13:02:37,47.672064,9.271737,50.197551965864065,0.09999731783638802,0.0,-0.09999731783638802,0.0,308.0,299.5,20.2,,,,,,,,,,,
4243.jpg,2160,3840,2020-08-25T15:02:37.573133,,mavic,DJI_0041,DJI_0041.MP4,3195.0,,DJI_0041_AND_0042_AND_0043.MP4_image3086.png,2020-08-25 13:02:38,47.672063,9.271735,50.197551965864065,0.0,0.0,0.0,0.0,307.9,299.5,20.2,,,,,,,,,,,
4436.jpg,2160,3840,2020-08-27T14:11:43.136633,,mavic,DJI_0055,DJI_0055.MP4,5100.0,,DJI_0055.MP4_image4994.png,2020-08-27 12:11:43,47.673035,9.268761,19.999024687595245,2.686927930263746,-1.8999490388913725,-1.8999490388913725,0.0,142.2,146.6,15.6,,,,,,,,,,,
4437.jpg,2160,3840,2020-08-27T14:11:43.637133,,mavic,DJI_0055,DJI_0055.MP4,5115.0,,DJI_0055.MP4_image5020.png,2020-08-27 12:11:44,47.673017,9.268735,19.999024687595245,2.686927930263746,-1.8999490388913725,-1.8999490388913725,0.0,139.8,144.3,15.7,,,,,,,,,,,
4438.jpg,2160,3840,2020-08-27T14:11:44.137633,,mavic,DJI_0055,DJI_0055.MP4,5130.0,,DJI_0055.MP4_image5020.png,2020-08-27 12:11:44,47.673017,9.268735,19.999024687595245,2.686927930263746,-1.8999490388913725,-1.8999490388913725,0.0,139.8,144.3,15.7,,,,,,,,,,,
4439.jpg,2160,3840,2020-08-27T14:11:44.638133,,mavic,DJI_0055,DJI_0055.MP4,5145.0,,DJI_0055.MP4_image5046.png,2020-08-27 12:11:45,47.673001,9.268709,20.099019811033223,2.758925999105945,-1.8999490388913725,-1.9999463567277604,0.0,137.6,142.0,15.8,,,,,,,,,,,
4440.jpg,2160,3840,2020-08-27T14:11:45.138633,,mavic,DJI_0055,DJI_0055.MP4,5160.0,,DJI_0055.MP4_image5046.png,2020-08-27 12:11:45,47.673001,9.268709,20.099019811033223,2.758925999105945,-1.8999490388913725,-1.9999463567277604,0.0,137.6,142.0,15.8,,,,,,,,,,,
4441.jpg,2160,3840,2020-08-27T14:11:45.639133,,mavic,DJI_0055,DJI_0055.MP4,5175.0,,DJI_0055.MP4_image5082.png,2020-08-27 12:11:46,47.672983,9.268683,20.099019811033223,2.758925999105945,-1.8999490388913725,-1.9999463567277604,0.0,135.2,139.6,15.8,,,,,,,,,,,
4442.jpg,2160,3840,2020-08-27T14:11:46.139633,,mavic,DJI_0055,DJI_0055.MP4,5190.0,,DJI_0055.MP4_image5082.png,2020-08-27 12:11:46,47.672983,9.268683,20.099019811033223,2.758925999105945,-1.8999490388913725,-1.9999463567277604,0.0,135.2,139.6,15.8,,,,,,,,,,,
4482.jpg,2160,3840,2020-08-27T14:18:31.986633,,mavic,DJI_0057,DJI_0057.MP4,600.0,,DJI_0056_AND_0057_AND_0058.MP4_image9632.png,2020-08-27 12:18:32,47.671987,9.269672,8.799570862541907,3.396908886902101,-2.4999329459097,2.299938310236924,0.0,138.1,140.9,45.4,,,,,,,,,,,
4483.jpg,2160,3840,2020-08-27T14:18:32.487133,,mavic,DJI_0057,DJI_0057.MP4,615.0,,DJI_0056_AND_0057_AND_0058.MP4_image9632.png,2020-08-27 12:18:32,47.671987,9.269672,8.799570862541907,3.396908886902101,-2.4999329459097,2.299938310236924,0.0,138.1,140.9,45.4,,,,,,,,,,,
4484.jpg,2160,3840,2020-08-27T14:18:32.987633,,mavic,DJI_0057,DJI_0057.MP4,630.0,,DJI_0056_AND_0057_AND_0058.MP4_image9667.png,2020-08-27 12:18:33,47.671966,9.269701,8.799570862541907,2.6909278229772013,-1.9999463567277604,1.7999517210549845,0.0,138.2,140.9,45.4,,,,,,,,,,,
4485.jpg,2160,3840,2020-08-27T14:18:33.488133,,mavic,DJI_0057,DJI_0057.MP4,645.0,,DJI_0056_AND_0057_AND_0058.MP4_image9667.png,2020-08-27 12:18:33,47.671966,9.269701,8.799570862541907,2.6909278229772013,-1.9999463567277604,1.7999517210549845,0.0,138.2,140.9,45.4,,,,,,,,,,,
4486.jpg,2160,3840,2020-08-27T14:18:33.988633,,mavic,DJI_0057,DJI_0057.MP4,660.0,,DJI_0056_AND_0057_AND_0058.MP4_image9705.png,2020-08-27 12:18:34,47.671952,9.269719,8.699575739103931,0.6399828341528834,-0.4999865891819401,0.39998927134555207,0.0,138.2,140.9,45.4,,,,,,,,,,,
4487.jpg,2160,3840,2020-08-27T14:18:34.489133,,mavic,DJI_0057,DJI_0057.MP4,675.0,,DJI_0056_AND_0057_AND_0058.MP4_image9705.png,2020-08-27 12:18:34,47.671952,9.269719,8.699575739103931,0.6399828341528834,-0.4999865891819401,0.39998927134555207,0.0,138.2,140.9,45.4,,,,,,,,,,,
4488.jpg,2160,3840,2020-08-27T14:18:34.989633,,mavic,DJI_0057,DJI_0057.MP4,690.0,,DJI_0056_AND_0057_AND_0058.MP4_image9740.png,2020-08-27 12:18:35,47.671949,9.269725,8.599580615665955,0.7349802860974519,-0.299991953509164,0.299991953509164,0.599983907018328,138.2,140.9,45.4,,,,,,,,,,,
4865.jpg,2160,3840,2021-08-20T15:07:49.647133,,mavic,NorthSea_Fri_DJI_0112,NorthSea_Fri_DJI_0112.MP4,5415.0,,DJI_0112.MP4_image6011.png,2021-08-20 13:07:50,53.7214699690879,7.162888028788119,26.69869795793965,0.21999409924005361,-0.19999463567277603,-0.09999731783638802,-1.5999570853822083,264.3,268.8,51.6,,,,,,,,,,,
4866.jpg,2160,3840,2021-08-20T15:07:50.147633,,mavic,NorthSea_Fri_DJI_0112,NorthSea_Fri_DJI_0112.MP4,5430.0,,DJI_0112.MP4_image6011.png,2021-08-20 13:07:50,53.7214699690879,7.162888028788119,26.69869795793965,0.21999409924005361,-0.19999463567277603,-0.09999731783638802,-1.5999570853822083,264.3,268.8,51.6,,,,,,,,,,,
4867.jpg,2160,3840,2021-08-20T15:07:50.648133,,mavic,NorthSea_Fri_DJI_0112,NorthSea_Fri_DJI_0112.MP4,5445.0,,DJI_0112.MP4_image6044.png,2021-08-20 13:07:51,53.72146840989329,7.162887522881711,28.298619932947272,0.0,0.0,0.0,-1.7999517210549845,264.2,268.8,51.6,,,,,,,,,,,
4868.jpg,2160,3840,2021-08-20T15:07:51.148633,,mavic,NorthSea_Fri_DJI_0112,NorthSea_Fri_DJI_0112.MP4,5460.0,,DJI_0112.MP4_image6044.png,2021-08-20 13:07:51,53.72146840989329,7.162887522881711,28.298619932947272,0.0,0.0,0.0,-1.7999517210549845,264.2,268.8,51.6,,,,,,,,,,,
4869.jpg,2160,3840,2021-08-20T15:07:51.649133,,mavic,NorthSea_Fri_DJI_0112,NorthSea_Fri_DJI_0112.MP4,5475.0,,DJI_0112.MP4_image6081.png,2021-08-20 13:07:52,53.72146856752621,7.16290626367961,28.79859555013715,2.519932409476978,0.299991953509164,2.4999329459097,0.0,263.7,268.8,51.6,,,,,,,,,,,
4870.jpg,2160,3840,2021-08-20T15:07:52.149633,,mavic,NorthSea_Fri_DJI_0112,NorthSea_Fri_DJI_0112.MP4,5490.0,,DJI_0112.MP4_image6081.png,2021-08-20 13:07:52,53.72146856752621,7.16290626367961,28.79859555013715,2.519932409476978,0.299991953509164,2.4999329459097,0.0,263.7,268.8,51.6,,,,,,,,,,,
4871.jpg,2160,3840,2021-08-20T15:07:52.650133,,mavic,NorthSea_Fri_DJI_0112,NorthSea_Fri_DJI_0112.MP4,5505.0,,DJI_0112.MP4_image6115.png,2021-08-20 13:07:53,53.7214689259696,7.162928322492942,28.79859555013715,0.39998927134555207,0.0,0.39998927134555207,-0.299991953509164,264.1,268.8,51.6,,,,,,,,,,,
4872.jpg,2160,3840,2021-08-20T15:07:53.150633,,mavic,NorthSea_Fri_DJI_0112,NorthSea_Fri_DJI_0112.MP4,5520.0,,DJI_0112.MP4_image6115.png,2021-08-20 13:07:53,53.7214689259696,7.162928322492942,28.79859555013715,0.39998927134555207,0.0,0.39998927134555207,-0.299991953509164,264.1,268.8,51.6,,,,,,,,,,,
4873.jpg,2160,3840,2021-08-20T15:07:53.651133,,mavic,NorthSea_Fri_DJI_0112,NorthSea_Fri_DJI_0112.MP4,5535.0,,DJI_0112.MP4_image6149.png,2021-08-20 13:07:54,53.7214686462055,7.16293023771,28.998585797013106,0.0,0.0,0.0,-0.39998927134555207,264.2,268.8,51.6,,,,,,,,,,,
4874.jpg,2160,3840,2021-08-20T15:07:54.151633,,mavic,NorthSea_Fri_DJI_0112,NorthSea_Fri_DJI_0112.MP4,5550.0,,DJI_0112.MP4_image6149.png,2021-08-20 13:07:54,53.7214686462055,7.16293023771,28.998585797013106,0.0,0.0,0.0,-0.39998927134555207,264.2,268.8,51.6,,,,,,,,,,,
4875.jpg,2160,3840,2021-08-20T15:07:54.652133,,mavic,NorthSea_Fri_DJI_0112,NorthSea_Fri_DJI_0112.MP4,5565.0,,DJI_0112.MP4_image6183.png,2021-08-20 13:07:55,53.7214683549274,7.162927730414442,29.798546784516912,0.0,0.0,0.0,-1.5999570853822083,264.5,268.8,51.6,,,,,,,,,,,
4876.jpg,2160,3840,2021-08-20T15:07:55.152633,,mavic,NorthSea_Fri_DJI_0112,NorthSea_Fri_DJI_0112.MP4,5580.0,,DJI_0112.MP4_image6183.png,2021-08-20 13:07:55,53.7214683549274,7.162927730414442,29.798546784516912,0.0,0.0,0.0,-1.5999570853822083,264.5,268.8,51.6,,,,,,,,,,,
4877.jpg,2160,3840,2021-08-20T15:07:55.653133,,mavic,NorthSea_Fri_DJI_0112,NorthSea_Fri_DJI_0112.MP4,5595.0,,DJI_0112.MP4_image6217.png,2021-08-20 13:07:56,53.7214702345965,7.162944507803579,30.598507772020724,2.7099273133661153,0.19999463567277603,2.699927581582476,0.09999731783638802,265.5,268.8,51.6,,,,,,,,,,,
4878.jpg,2160,3840,2021-08-20T15:07:56.153633,,mavic,NorthSea_Fri_DJI_0112,NorthSea_Fri_DJI_0112.MP4,5610.0,,DJI_0112.MP4_image6217.png,2021-08-20 13:07:56,53.7214702345965,7.162944507803579,30.598507772020724,2.7099273133661153,0.19999463567277603,2.699927581582476,0.09999731783638802,265.5,268.8,51.6,,,,,,,,,,,
4879.jpg,2160,3840,2021-08-20T15:07:56.654133,,mavic,NorthSea_Fri_DJI_0112,NorthSea_Fri_DJI_0112.MP4,5625.0,,DJI_0112.MP4_image6250.png,2021-08-20 13:07:57,53.7214737276036,7.16301025528772,30.398517525144772,5.4198546267322305,0.4999865891819401,5.399855163164952,0.0,264.5,268.8,56.0,,,,,,,,,,,
4880.jpg,2160,3840,2021-08-20T15:07:57.154633,,mavic,NorthSea_Fri_DJI_0112,NorthSea_Fri_DJI_0112.MP4,5640.0,,DJI_0112.MP4_image6250.png,2021-08-20 13:07:57,53.7214737276036,7.16301025528772,30.398517525144772,5.4198546267322305,0.4999865891819401,5.399855163164952,0.0,264.5,268.8,56.0,,,,,,,,,,,
4881.jpg,2160,3840,2021-08-20T15:07:57.655133,,mavic,NorthSea_Fri_DJI_0112,NorthSea_Fri_DJI_0112.MP4,5655.0,,DJI_0112.MP4_image6284.png,2021-08-20 13:07:58,53.72147624835871,7.1630768728183405,30.298522401706794,2.2999383102369246,0.0,2.2999383102369246,-0.09999731783638802,264.0,268.8,48.6,,,,,,,,,,,
4882.jpg,2160,3840,2021-08-20T15:07:58.155633,,mavic,NorthSea_Fri_DJI_0112,NorthSea_Fri_DJI_0112.MP4,5670.0,,DJI_0112.MP4_image6284.png,2021-08-20 13:07:58,53.72147624835871,7.1630768728183405,30.298522401706794,2.2999383102369246,0.0,2.2999383102369246,-0.09999731783638802,264.0,268.8,48.6,,,,,,,,,,,
4883.jpg,2160,3840,2021-08-20T15:07:58.656133,,mavic,NorthSea_Fri_DJI_0112,NorthSea_Fri_DJI_0112.MP4,5685.0,,DJI_0112.MP4_image6314.png,2021-08-20 13:07:59,53.721477152897215,7.16309234928628,30.298522401706794,0.19999463567277603,0.0,0.19999463567277603,-0.09999731783638802,264.5,268.8,39.1,,,,,,,,,,,
4884.jpg,2160,3840,2021-08-20T15:07:59.156633,,mavic,NorthSea_Fri_DJI_0112,NorthSea_Fri_DJI_0112.MP4,5700.0,,DJI_0112.MP4_image6314.png,2021-08-20 13:07:59,53.721477152897215,7.16309234928628,30.298522401706794,0.19999463567277603,0.0,0.19999463567277603,-0.09999731783638802,264.5,268.8,39.1,,,,,,,,,,,
4885.jpg,2160,3840,2021-08-20T15:07:59.657133,,mavic,NorthSea_Fri_DJI_0112,NorthSea_Fri_DJI_0112.MP4,5715.0,,DJI_0112.MP4_image6352.png,2021-08-20 13:08:00,53.721478663979504,7.16310893765396,30.398517525144772,2.2099407241841753,0.19999463567277603,2.1999409924005366,-0.09999731783638802,265.0,268.8,37.1,,,,,,,,,,,
4886.jpg,2160,3840,2021-08-20T15:08:00.157633,,mavic,NorthSea_Fri_DJI_0112,NorthSea_Fri_DJI_0112.MP4,5730.0,,DJI_0112.MP4_image6352.png,2021-08-20 13:08:00,53.721478663979504,7.16310893765396,30.398517525144772,2.2099407241841753,0.19999463567277603,2.1999409924005366,-0.09999731783638802,265.0,268.8,37.1,,,,,,,,,,,
4887.jpg,2160,3840,2021-08-20T15:08:00.658133,,mavic,NorthSea_Fri_DJI_0112,NorthSea_Fri_DJI_0112.MP4,5745.0,,DJI_0112.MP4_image6385.png,2021-08-20 13:08:01,53.7214793423491,7.16314213013233,30.398517525144772,1.7999517210549845,0.09999731783638802,1.7999517210549845,0.0,264.0,268.8,37.1,,,,,,,,,,,
4888.jpg,2160,3840,2021-08-20T15:08:01.158633,,mavic,NorthSea_Fri_DJI_0112,NorthSea_Fri_DJI_0112.MP4,5760.0,,DJI_0112.MP4_image6385.png,2021-08-20 13:08:01,53.7214793423491,7.16314213013233,30.398517525144772,1.7999517210549845,0.09999731783638802,1.7999517210549845,0.0,264.0,268.8,37.1,,,,,,,,,,,
4889.jpg,2160,3840,2021-08-20T15:08:01.659133,,mavic,NorthSea_Fri_DJI_0112,NorthSea_Fri_DJI_0112.MP4,5775.0,,DJI_0112.MP4_image6419.png,2021-08-20 13:08:02,53.7214816062311,7.16318112479002,30.598507772020724,3.7099004917299956,0.299991953509164,3.699900759946357,0.0,264.6,268.8,37.1,,,,,,,,,,,
4890.jpg,2160,3840,2021-08-20T15:08:02.159633,,mavic,NorthSea_Fri_DJI_0112,NorthSea_Fri_DJI_0112.MP4,5790.0,,DJI_0112.MP4_image6419.png,2021-08-20 13:08:02,53.7214816062311,7.16318112479002,30.598507772020724,3.7099004917299956,0.299991953509164,3.699900759946357,0.0,264.6,268.8,37.1,,,,,,,,,,,
4891.jpg,2160,3840,2021-08-20T15:08:02.660133,,mavic,NorthSea_Fri_DJI_0112,NorthSea_Fri_DJI_0112.MP4,5805.0,,DJI_0112.MP4_image6453.png,2021-08-20 13:08:03,53.7214844223765,7.16322942406044,30.398517525144772,3.109916584711668,0.299991953509164,3.0999168529280285,0.0,264.4,268.8,37.1,,,,,,,,,,,
4892.jpg,2160,3840,2021-08-20T15:08:03.160633,,mavic,NorthSea_Fri_DJI_0112,NorthSea_Fri_DJI_0112.MP4,5820.0,,DJI_0112.MP4_image6453.png,2021-08-20 13:08:03,53.7214844223765,7.16322942406044,30.398517525144772,3.109916584711668,0.299991953509164,3.0999168529280285,0.0,264.4,268.8,37.1,,,,,,,,,,,
4893.jpg,2160,3840,2021-08-20T15:08:03.661133,,mavic,NorthSea_Fri_DJI_0112,NorthSea_Fri_DJI_0112.MP4,5835.0,,DJI_0112.MP4_image6487.png,2021-08-20 13:08:04,53.7214875403545,7.16327812451147,30.398517525144772,2.91992168082253,0.299991953509164,2.8999222172552526,0.0,264.7,268.8,37.1,,,,,,,,,,,
4894.jpg,2160,3840,2021-08-20T15:08:04.161633,,mavic,NorthSea_Fri_DJI_0112,NorthSea_Fri_DJI_0112.MP4,5850.0,,DJI_0112.MP4_image6487.png,2021-08-20 13:08:04,53.7214875403545,7.16327812451147,30.398517525144772,2.91992168082253,0.299991953509164,2.8999222172552526,0.0,264.7,268.8,37.1,,,,,,,,,,,
4895.jpg,2160,3840,2021-08-20T15:08:04.662133,,mavic,NorthSea_Fri_DJI_0112,NorthSea_Fri_DJI_0112.MP4,5865.0,,DJI_0112.MP4_image6521.png,2021-08-20 13:08:05,53.7214900042247,7.16331834779229,30.498512648582746,0.9999731783638802,0.09999731783638802,0.9999731783638802,0.0,262.9,267.7,37.1,,,,,,,,,,,
4896.jpg,2160,3840,2021-08-20T15:08:05.162633,,mavic,NorthSea_Fri_DJI_0112,NorthSea_Fri_DJI_0112.MP4,5880.0,,DJI_0112.MP4_image6521.png,2021-08-20 13:08:05,53.7214900042247,7.16331834779229,30.498512648582746,0.9999731783638802,0.09999731783638802,0.9999731783638802,0.0,262.9,267.7,37.1,,,,,,,,,,,
4897.jpg,2160,3840,2021-08-20T15:08:05.663133,,mavic,NorthSea_Fri_DJI_0112,NorthSea_Fri_DJI_0112.MP4,5895.0,,DJI_0112.MP4_image6554.png,2021-08-20 13:08:06,53.7214911008011,7.1633231826267805,30.398517525144772,0.09999731783638802,0.09999731783638802,0.0,0.0,262.7,267.7,37.1,,,,,,,,,,,
4898.jpg,2160,3840,2021-08-20T15:08:06.163633,,mavic,NorthSea_Fri_DJI_0112,NorthSea_Fri_DJI_0112.MP4,5910.0,,DJI_0112.MP4_image6554.png,2021-08-20 13:08:06,53.7214911008011,7.1633231826267805,30.398517525144772,0.09999731783638802,0.09999731783638802,0.0,0.0,262.7,267.7,37.1,,,,,,,,,,,
4899.jpg,2160,3840,2021-08-20T15:08:06.664133,,mavic,NorthSea_Fri_DJI_0112,NorthSea_Fri_DJI_0112.MP4,5925.0,,DJI_0112.MP4_image6588.png,2021-08-20 13:08:07,53.7215051883815,7.163316884737,30.498512648582746,1.8399506481895402,1.7999517210549845,-0.39998927134555207,-0.09999731783638802,262.9,266.9,37.1,,,,,,,,,,,
4900.jpg,2160,3840,2021-08-20T15:08:07.164633,,mavic,NorthSea_Fri_DJI_0112,NorthSea_Fri_DJI_0112.MP4,5940.0,,DJI_0112.MP4_image6588.png,2021-08-20 13:08:07,53.7215051883815,7.163316884737,30.498512648582746,1.8399506481895402,1.7999517210549845,-0.39998927134555207,-0.09999731783638802,262.9,266.9,37.1,,,,,,,,,,,
4901.jpg,2160,3840,2021-08-20T15:08:07.665133,,mavic,NorthSea_Fri_DJI_0112,NorthSea_Fri_DJI_0112.MP4,5955.0,,DJI_0112.MP4_image6622.png,2021-08-20 13:08:08,53.7215284914532,7.163308850456869,30.598507772020724,3.0999168529280285,2.9999195350916406,-0.7999785426911041,-0.19999463567277603,245.0,248.2,37.1,,,,,,,,,,,
4902.jpg,2160,3840,2021-08-20T15:08:08.165633,,mavic,NorthSea_Fri_DJI_0112,NorthSea_Fri_DJI_0112.MP4,5970.0,,DJI_0112.MP4_image6622.png,2021-08-20 13:08:08,53.7215284914532,7.163308850456869,30.598507772020724,3.0999168529280285,2.9999195350916406,-0.7999785426911041,-0.19999463567277603,245.0,248.2,37.1,,,,,,,,,,,
4903.jpg,2160,3840,2021-08-20T15:08:08.666133,,mavic,NorthSea_Fri_DJI_0112,NorthSea_Fri_DJI_0112.MP4,5985.0,,DJI_0112.MP4_image6656.png,2021-08-20 13:08:09,53.7215428922431,7.1633003056384,30.498512648582746,1.5199592311130978,1.3999624497094323,-0.599983907018328,0.0,243.4,248.2,37.1,,,,,,,,,,,
4904.jpg,2160,3840,2021-08-20T15:08:09.166633,,mavic,NorthSea_Fri_DJI_0112,NorthSea_Fri_DJI_0112.MP4,6000.0,,DJI_0112.MP4_image6656.png,2021-08-20 13:08:09,53.7215428922431,7.1633003056384,30.498512648582746,1.5199592311130978,1.3999624497094323,-0.599983907018328,0.0,243.4,248.2,37.1,,,,,,,,,,,
4905.jpg,2160,3840,2021-08-20T15:08:09.667133,,mavic,NorthSea_Fri_DJI_0112,NorthSea_Fri_DJI_0112.MP4,6015.0,,DJI_0112.MP4_image6686.png,2021-08-20 13:08:10,53.7215617673392,7.163285459222308,30.598507772020724,3.6699015645954405,3.2999114886008045,-1.5999570853822083,0.0,243.5,248.7,37.1,,,,,,,,,,,
4906.jpg,2160,3840,2021-08-20T15:08:10.167633,,mavic,NorthSea_Fri_DJI_0112,NorthSea_Fri_DJI_0112.MP4,6030.0,,DJI_0112.MP4_image6686.png,2021-08-20 13:08:10,53.7215617673392,7.163285459222308,30.598507772020724,3.6699015645954405,3.2999114886008045,-1.5999570853822083,0.0,243.5,248.7,37.1,,,,,,,,,,,
4907.jpg,2160,3840,2021-08-20T15:08:10.668133,,mavic,NorthSea_Fri_DJI_0112,NorthSea_Fri_DJI_0112.MP4,6045.0,,DJI_0112.MP4_image6723.png,2021-08-20 13:08:11,53.72160561778621,7.16325062577737,30.498512648582746,5.769845239159588,5.199860527492176,-2.4999329459097,-0.09999731783638802,244.0,249.0,37.1,,,,,,,,,,,
4908.jpg,2160,3840,2021-08-20T15:08:11.168633,,mavic,NorthSea_Fri_DJI_0112,NorthSea_Fri_DJI_0112.MP4,6060.0,,DJI_0112.MP4_image6723.png,2021-08-20 13:08:11,53.72160561778621,7.16325062577737,30.498512648582746,5.769845239159588,5.199860527492176,-2.4999329459097,-0.09999731783638802,244.0,249.0,37.1,,,,,,,,,,,
4909.jpg,2160,3840,2021-08-20T15:08:11.669133,,mavic,NorthSea_Fri_DJI_0112,NorthSea_Fri_DJI_0112.MP4,6075.0,,DJI_0112.MP4_image6757.png,2021-08-20 13:08:12,53.7216536234348,7.163212521567639,30.398517525144772,4.019892177022799,3.599903442109969,-1.7999517210549845,0.0,245.5,249.7,37.1,,,,,,,,,,,
4910.jpg,2160,3840,2021-08-20T15:08:12.169633,,mavic,NorthSea_Fri_DJI_0112,NorthSea_Fri_DJI_0112.MP4,6090.0,,DJI_0112.MP4_image6757.png,2021-08-20 13:08:12,53.7216536234348,7.163212521567639,30.398517525144772,4.019892177022799,3.599903442109969,-1.7999517210549845,0.0,245.5,249.7,37.1,,,,,,,,,,,
4911.jpg,2160,3840,2021-08-20T15:08:12.670133,,mavic,NorthSea_Fri_DJI_0112,NorthSea_Fri_DJI_0112.MP4,6105.0,,DJI_0112.MP4_image6787.png,2021-08-20 13:08:13,53.7216700483678,7.1631969922752905,30.398517525144772,0.5799844434510505,0.4999865891819401,-0.299991953509164,0.0,248.8,253.9,37.1,,,,,,,,,,,
4912.jpg,2160,3840,2021-08-20T15:08:13.170633,,mavic,NorthSea_Fri_DJI_0112,NorthSea_Fri_DJI_0112.MP4,6120.0,,DJI_0112.MP4_image6787.png,2021-08-20 13:08:13,53.7216700483678,7.1631969922752905,30.398517525144772,0.5799844434510505,0.4999865891819401,-0.299991953509164,0.0,248.8,253.9,37.1,,,,,,,,,,,
4913.jpg,2160,3840,2021-08-20T15:08:13.671133,,mavic,NorthSea_Fri_DJI_0112,NorthSea_Fri_DJI_0112.MP4,6135.0,,DJI_0112.MP4_image6824.png,2021-08-20 13:08:14,53.721670811722,7.16319534668946,30.698502895458702,0.0,0.0,0.0,0.0,244.7,249.0,37.1,,,,,,,,,,,
4914.jpg,2160,3840,2021-08-20T15:08:14.171633,,mavic,NorthSea_Fri_DJI_0112,NorthSea_Fri_DJI_0112.MP4,6150.0,,DJI_0112.MP4_image6824.png,2021-08-20 13:08:14,53.721670811722,7.16319534668946,30.698502895458702,0.0,0.0,0.0,0.0,244.7,249.0,37.1,,,,,,,,,,,
4915.jpg,2160,3840,2021-08-20T15:08:14.672133,,mavic,NorthSea_Fri_DJI_0112,NorthSea_Fri_DJI_0112.MP4,6165.0,,DJI_0112.MP4_image6858.png,2021-08-20 13:08:15,53.721669410845614,7.1631955004998495,30.698502895458702,0.0,0.0,0.0,0.0,241.5,245.6,37.1,,,,,,,,,,,
4916.jpg,2160,3840,2021-08-20T15:08:15.172633,,mavic,NorthSea_Fri_DJI_0112,NorthSea_Fri_DJI_0112.MP4,6180.0,,DJI_0112.MP4_image6858.png,2021-08-20 13:08:15,53.721669410845614,7.1631955004998495,30.698502895458702,0.0,0.0,0.0,0.0,241.5,245.6,37.1,,,,,,,,,,,
4917.jpg,2160,3840,2021-08-20T15:08:15.673133,,mavic,NorthSea_Fri_DJI_0112,NorthSea_Fri_DJI_0112.MP4,6195.0,,DJI_0112.MP4_image6892.png,2021-08-20 13:08:16,53.72167075045079,7.16319511041412,30.598507772020724,0.1399962449709432,0.09999731783638802,-0.09999731783638802,0.0,235.9,239.9,37.1,,,,,,,,,,,
4918.jpg,2160,3840,2021-08-20T15:08:16.173633,,mavic,NorthSea_Fri_DJI_0112,NorthSea_Fri_DJI_0112.MP4,6210.0,,DJI_0112.MP4_image6892.png,2021-08-20 13:08:16,53.72167075045079,7.16319511041412,30.598507772020724,0.1399962449709432,0.09999731783638802,-0.09999731783638802,0.0,235.9,239.9,37.1,,,,,,,,,,,
4919.jpg,2160,3840,2021-08-20T15:08:16.674133,,mavic,NorthSea_Fri_DJI_0112,NorthSea_Fri_DJI_0112.MP4,6225.0,,DJI_0112.MP4_image6926.png,2021-08-20 13:08:17,53.7216733382341,7.1631922723334505,30.498512648582746,0.1399962449709432,0.09999731783638802,-0.09999731783638802,0.0,234.1,238.6,37.1,,,,,,,,,,,
4920.jpg,2160,3840,2021-08-20T15:08:17.174633,,mavic,NorthSea_Fri_DJI_0112,NorthSea_Fri_DJI_0112.MP4,6240.0,,DJI_0112.MP4_image6926.png,2021-08-20 13:08:17,53.7216733382341,7.1631922723334505,30.498512648582746,0.1399962449709432,0.09999731783638802,-0.09999731783638802,0.0,234.1,238.6,37.1,,,,,,,,,,,
4921.jpg,2160,3840,2021-08-20T15:08:17.675133,,mavic,NorthSea_Fri_DJI_0112,NorthSea_Fri_DJI_0112.MP4,6255.0,,DJI_0112.MP4_image6960.png,2021-08-20 13:08:18,53.7216736134748,7.1631914439811695,30.598507772020724,0.0,0.0,0.0,0.0,234.1,238.6,37.1,,,,,,,,,,,
4922.jpg,2160,3840,2021-08-20T15:08:18.175633,,mavic,NorthSea_Fri_DJI_0112,NorthSea_Fri_DJI_0112.MP4,6270.0,,DJI_0112.MP4_image6960.png,2021-08-20 13:08:18,53.7216736134748,7.1631914439811695,30.598507772020724,0.0,0.0,0.0,0.0,234.1,238.6,37.1,,,,,,,,,,,
4923.jpg,2160,3840,2021-08-20T15:08:18.676133,,mavic,NorthSea_Fri_DJI_0112,NorthSea_Fri_DJI_0112.MP4,6285.0,,DJI_0112.MP4_image6990.png,2021-08-20 13:08:19,53.7216728906939,7.16319198509743,30.698502895458702,0.0,0.0,0.0,0.0,234.1,238.6,37.1,,,,,,,,,,,
4924.jpg,2160,3840,2021-08-20T15:08:19.176633,,mavic,NorthSea_Fri_DJI_0112,NorthSea_Fri_DJI_0112.MP4,6300.0,,DJI_0112.MP4_image6990.png,2021-08-20 13:08:19,53.7216728906939,7.16319198509743,30.698502895458702,0.0,0.0,0.0,0.0,234.1,238.6,37.1,,,,,,,,,,,
5146.jpg,2160,3840,2020-08-27T14:30:06.086633,,mavic,DJI_0059,DJI_0059.MP4,3600.0,,DJI_0059_AND_0060.MP4_image3636.png,2020-08-27 12:30:06,47.671747,9.269693,30.298522401706794,3.99189292802861,1.4999597675458203,-3.699900759946357,0.0,20.6,18.9,30.7,,,,,,,,,,,
5147.jpg,2160,3840,2020-08-27T14:30:06.587133,,mavic,DJI_0059,DJI_0059.MP4,3615.0,,DJI_0059_AND_0060.MP4_image3668.png,2020-08-27 12:30:07,47.671768,9.269626,30.398517525144772,6.814817210549843,2.599930263746088,-6.299831023692445,0.0,22.8,21.1,30.7,,,,,,,,,,,
5148.jpg,2160,3840,2020-08-27T14:30:07.087633,,mavic,DJI_0059,DJI_0059.MP4,3630.0,,DJI_0059_AND_0060.MP4_image3668.png,2020-08-27 12:30:07,47.671768,9.269626,30.398517525144772,6.814817210549843,2.599930263746088,-6.299831023692445,0.0,22.8,21.1,30.7,,,,,,,,,,,
5149.jpg,2160,3840,2020-08-27T14:30:07.588133,,mavic,DJI_0059,DJI_0059.MP4,3645.0,,DJI_0059_AND_0060.MP4_image3697.png,2020-08-27 12:30:08,47.6718,9.269516,30.298522401706794,8.82376332588288,3.4999061242735805,-8.09978274474743,0.0,29.1,27.5,30.7,,,,,,,,,,,
5150.jpg,2160,3840,2020-08-27T14:30:08.088633,,mavic,DJI_0059,DJI_0059.MP4,3660.0,,DJI_0059_AND_0060.MP4_image3697.png,2020-08-27 12:30:08,47.6718,9.269516,30.298522401706794,8.82376332588288,3.4999061242735805,-8.09978274474743,0.0,29.1,27.5,30.7,,,,,,,,,,,
5151.jpg,2160,3840,2020-08-27T14:30:08.589133,,mavic,DJI_0059,DJI_0059.MP4,3675.0,,DJI_0059_AND_0060.MP4_image3722.png,2020-08-27 12:30:09,47.671825,9.269431,30.19852727826882,5.646848538220832,2.1999409924005366,-5.199860527492176,0.09999731783638802,28.7,27.8,30.7,,,,,,,,,,,
5152.jpg,2160,3840,2020-08-27T14:30:09.089633,,mavic,DJI_0059,DJI_0059.MP4,3690.0,,DJI_0059_AND_0060.MP4_image3722.png,2020-08-27 12:30:09,47.671825,9.269431,30.19852727826882,5.646848538220832,2.1999409924005366,-5.199860527492176,0.09999731783638802,28.7,27.8,30.7,,,,,,,,,,,
10740.jpg,2160,3840,2020-08-27T15:41:04.538133,,mavic,DJI_0063,DJI_0063.MP4,2145.0,,DJI_0062_AND_0063.MP4_image10973.png,2020-08-27 13:41:05,47.672419,9.269057,47.79766900335263,0.0,0.0,0.0,0.0,138.9,130.5,36.1,,,,,,,,,,,
10741.jpg,2160,3840,2020-08-27T15:41:05.038633,,mavic,DJI_0063,DJI_0063.MP4,2160.0,,DJI_0062_AND_0063.MP4_image10973.png,2020-08-27 13:41:05,47.672419,9.269057,47.79766900335263,0.0,0.0,0.0,0.0,138.9,130.5,36.1,,,,,,,,,,,
10742.jpg,2160,3840,2020-08-27T15:41:05.539133,,mavic,DJI_0063,DJI_0063.MP4,2175.0,,DJI_0062_AND_0063.MP4_image11010.png,2020-08-27 13:41:06,47.672418,9.269057,47.79766900335263,0.0,0.0,0.0,0.0,138.9,130.5,36.1,,,,,,,,,,,
10743.jpg,2160,3840,2020-08-27T15:41:06.039633,,mavic,DJI_0063,DJI_0063.MP4,2190.0,,DJI_0062_AND_0063.MP4_image11010.png,2020-08-27 13:41:06,47.672418,9.269057,47.79766900335263,0.0,0.0,0.0,0.0,138.9,130.5,36.1,,,,,,,,,,,
10744.jpg,2160,3840,2020-08-27T15:41:06.540133,,mavic,DJI_0063,DJI_0063.MP4,2205.0,,DJI_0062_AND_0063.MP4_image11042.png,2020-08-27 13:41:07,47.672418,9.269057,47.79766900335263,0.0,0.0,0.0,0.0,138.9,130.5,36.1,,,,,,,,,,,
10745.jpg,2160,3840,2020-08-27T15:41:07.040633,,mavic,DJI_0063,DJI_0063.MP4,2220.0,,DJI_0062_AND_0063.MP4_image11042.png,2020-08-27 13:41:07,47.672418,9.269057,47.79766900335263,0.0,0.0,0.0,0.0,138.9,130.5,36.1,,,,,,,,,,,
10746.jpg,2160,3840,2020-08-27T15:41:07.541133,,mavic,DJI_0063,DJI_0063.MP4,2235.0,,DJI_0062_AND_0063.MP4_image11082.png,2020-08-27 13:41:08,47.672419,9.269057,47.79766900335263,0.0,0.0,0.0,0.0,138.9,130.5,36.1,,,,,,,,,,,
10747.jpg,2160,3840,2020-08-27T15:41:08.041633,,mavic,DJI_0063,DJI_0063.MP4,2250.0,,DJI_0062_AND_0063.MP4_image11082.png,2020-08-27 13:41:08,47.672419,9.269057,47.79766900335263,0.0,0.0,0.0,0.0,138.9,130.5,36.1,,,,,,,,,,,
10748.jpg,2160,3840,2020-08-27T15:41:08.542133,,mavic,DJI_0063,DJI_0063.MP4,2265.0,,DJI_0062_AND_0063.MP4_image11114.png,2020-08-27 13:41:09,47.672419,9.269057,47.79766900335263,0.0,0.0,0.0,0.0,138.9,130.5,36.1,,,,,,,,,,,
10749.jpg,2160,3840,2020-08-27T15:41:09.042633,,mavic,DJI_0063,DJI_0063.MP4,2280.0,,DJI_0062_AND_0063.MP4_image11114.png,2020-08-27 13:41:09,47.672419,9.269057,47.79766900335263,0.0,0.0,0.0,0.0,138.9,130.5,36.1,,,,,,,,,,,
10750.jpg,2160,3840,2020-08-27T15:41:09.543133,,mavic,DJI_0063,DJI_0063.MP4,2295.0,,DJI_0062_AND_0063.MP4_image11147.png,2020-08-27 13:41:10,47.672419,9.269057,47.79766900335263,0.0,0.0,0.0,0.0,138.9,130.5,36.1,,,,,,,,,,,
10751.jpg,2160,3840,2020-08-27T15:41:10.043633,,mavic,DJI_0063,DJI_0063.MP4,2310.0,,DJI_0062_AND_0063.MP4_image11147.png,2020-08-27 13:41:10,47.672419,9.269057,47.79766900335263,0.0,0.0,0.0,0.0,138.9,130.5,36.1,,,,,,,,,,,
10752.jpg,2160,3840,2020-08-27T15:41:10.544133,,mavic,DJI_0063,DJI_0063.MP4,2325.0,,DJI_0062_AND_0063.MP4_image11174.png,2020-08-27 13:41:11,47.672418,9.269057,47.79766900335263,0.0,0.0,0.0,0.0,138.9,130.5,36.1,,,,,,,,,,,
10753.jpg,2160,3840,2020-08-27T15:41:11.044633,,mavic,DJI_0063,DJI_0063.MP4,2340.0,,DJI_0062_AND_0063.MP4_image11174.png,2020-08-27 13:41:11,47.672418,9.269057,47.79766900335263,0.0,0.0,0.0,0.0,138.9,130.5,36.1,,,,,,,,,,,
10754.jpg,2160,3840,2020-08-27T15:41:11.545133,,mavic,DJI_0063,DJI_0063.MP4,2355.0,,DJI_0062_AND_0063.MP4_image11201.png,2020-08-27 13:41:12,47.672418,9.269056,47.79766900335263,0.0,0.0,0.0,0.0,138.9,130.5,36.1,,,,,,,,,,,
10755.jpg,2160,3840,2020-08-27T15:41:12.045633,,mavic,DJI_0063,DJI_0063.MP4,2370.0,,DJI_0062_AND_0063.MP4_image11201.png,2020-08-27 13:41:12,47.672418,9.269056,47.79766900335263,0.0,0.0,0.0,0.0,138.9,130.5,36.1,,,,,,,,,,,
10756.jpg,2160,3840,2020-08-27T15:41:12.546133,,mavic,DJI_0063,DJI_0063.MP4,2385.0,,DJI_0062_AND_0063.MP4_image11236.png,2020-08-27 13:41:13,47.672418,9.269056,47.89766412679061,0.0,0.0,0.0,0.0,138.9,130.5,36.1,,,,,,,,,,,
10757.jpg,2160,3840,2020-08-27T15:41:13.046633,,mavic,DJI_0063,DJI_0063.MP4,2400.0,,DJI_0062_AND_0063.MP4_image11236.png,2020-08-27 13:41:13,47.672418,9.269056,47.89766412679061,0.0,0.0,0.0,0.0,138.9,130.5,36.1,,,,,,,,,,,
10758.jpg,2160,3840,2020-08-27T15:41:13.547133,,mavic,DJI_0063,DJI_0063.MP4,2415.0,,DJI_0062_AND_0063.MP4_image11267.png,2020-08-27 13:41:14,47.672417,9.269055,47.89766412679061,0.0,0.0,0.0,0.0,138.9,130.5,36.1,,,,,,,,,,,
10759.jpg,2160,3840,2020-08-27T15:41:14.047633,,mavic,DJI_0063,DJI_0063.MP4,2430.0,,DJI_0062_AND_0063.MP4_image11267.png,2020-08-27 13:41:14,47.672417,9.269055,47.89766412679061,0.0,0.0,0.0,0.0,138.9,130.5,36.1,,,,,,,,,,,
10760.jpg,2160,3840,2020-08-27T15:41:14.548133,,mavic,DJI_0063,DJI_0063.MP4,2445.0,,DJI_0062_AND_0063.MP4_image11300.png,2020-08-27 13:41:15,47.672417,9.269055,47.89766412679061,0.0,0.0,0.0,0.0,138.9,130.5,36.1,,,,,,,,,,,
10761.jpg,2160,3840,2020-08-27T15:41:15.048633,,mavic,DJI_0063,DJI_0063.MP4,2460.0,,DJI_0062_AND_0063.MP4_image11300.png,2020-08-27 13:41:15,47.672417,9.269055,47.89766412679061,0.0,0.0,0.0,0.0,138.9,130.5,36.1,,,,,,,,,,,
