file_name,height,width,date_time,frame,drone,folder_name,video,frame_no,image_name,image_name,datetime(utc),latitude,longitude,height_above_takeoff(meter),speed(m/s),xspeed(m/s),yspeed(m/s),zspeed(m/s),compass_heading(degrees),gimbal_heading(degrees),gimbal_pitch(degrees),date_time,gps_latitude_ref,gps_longitude_ref,altitude,gimbal_pitch,speed,xspeed,yspeed,zspeed,gps_latitude,gps_longitude
3388.jpg,2160,3840,2020-08-25T14:16:21,,mavic,DJI_0032,DJI_0032.MP4,0.0,,DJI_0032_merged.MP4_image0.png,2020-08-25 12:16:22,47.673596,9.270249,9.699526973483694,0.0,0.0,0.0,0.0,175.8,154.4,-2.5,,,,,,,,,,,
3389.jpg,2160,3840,2020-08-25T14:16:21.467133,,mavic,DJI_0032,DJI_0032.MP4,15.0,,DJI_0032_merged.MP4_image0.png,2020-08-25 12:16:22,47.673596,9.270249,9.699526973483694,0.0,0.0,0.0,0.0,175.8,154.4,-2.5,,,,,,,,,,,
3390.jpg,2160,3840,2020-08-25T14:16:21.967633,,mavic,DJI_0032,DJI_0032.MP4,30.0,,DJI_0032_merged.MP4_image0.png,2020-08-25 12:16:22,47.673596,9.270249,9.699526973483694,0.0,0.0,0.0,0.0,175.8,154.4,-2.5,,,,,,,,,,,
3391.jpg,2160,3840,2020-08-25T14:16:22.468133,,mavic,DJI_0032,DJI_0032.MP4,45.0,,DJI_0032_merged.MP4_image0.png,2020-08-25 12:16:22,47.673596,9.270249,9.699526973483694,0.0,0.0,0.0,0.0,175.8,154.4,-2.5,,,,,,,,,,,
3392.jpg,2160,3840,2020-08-25T14:16:22.968633,,mavic,DJI_0032,DJI_0032.MP4,60.0,,DJI_0032_merged.MP4_image13.png,2020-08-25 12:16:23,47.673596,9.270249,9.699526973483694,0.0,0.0,0.0,0.0,178.4,156.5,-2.5,,,,,,,,,,,
3393.jpg,2160,3840,2020-08-25T14:16:23.469133,,mavic,DJI_0032,DJI_0032.MP4,75.0,,DJI_0032_merged.MP4_image13.png,2020-08-25 12:16:23,47.673596,9.270249,9.699526973483694,0.0,0.0,0.0,0.0,178.4,156.5,-2.5,,,,,,,,,,,
3394.jpg,2160,3840,2020-08-25T14:16:23.969633,,mavic,DJI_0032,DJI_0032.MP4,90.0,,DJI_0032_merged.MP4_image48.png,2020-08-25 12:16:24,47.673586,9.270251,9.699526973483694,2.817924416629414,-2.7999248994188646,0.299991953509164,-0.09999731783638802,183.2,160.5,4.4,,,,,,,,,,,
3395.jpg,2160,3840,2020-08-25T14:16:24.470133,,mavic,DJI_0032,DJI_0032.MP4,105.0,,DJI_0032_merged.MP4_image48.png,2020-08-25 12:16:24,47.673586,9.270251,9.699526973483694,2.817924416629414,-2.7999248994188646,0.299991953509164,-0.09999731783638802,183.2,160.5,4.4,,,,,,,,,,,
3396.jpg,2160,3840,2020-08-25T14:16:24.970633,,mavic,DJI_0032,DJI_0032.MP4,120.0,,DJI_0032_merged.MP4_image83.png,2020-08-25 12:16:25,47.673554,9.270253,9.699526973483694,3.0069193473401876,-2.9999195350916406,0.19999463567277603,0.0,192.0,170.1,13.4,,,,,,,,,,,
3397.jpg,2160,3840,2020-08-25T14:16:25.471133,,mavic,DJI_0032,DJI_0032.MP4,135.0,,DJI_0032_merged.MP4_image83.png,2020-08-25 12:16:25,47.673554,9.270253,9.699526973483694,3.0069193473401876,-2.9999195350916406,0.19999463567277603,0.0,192.0,170.1,13.4,,,,,,,,,,,
3398.jpg,2160,3840,2020-08-25T14:16:25.971633,,mavic,DJI_0032,DJI_0032.MP4,150.0,,DJI_0032_merged.MP4_image108.png,2020-08-25 12:16:26,47.67353,9.270256,9.799522096921669,2.8069247116674116,-2.699927581582476,0.19999463567277603,0.0,200.2,178.2,12.7,,,,,,,,,,,
3399.jpg,2160,3840,2020-08-25T14:16:26.472133,,mavic,DJI_0032,DJI_0032.MP4,165.0,,DJI_0032_merged.MP4_image108.png,2020-08-25 12:16:26,47.67353,9.270256,9.799522096921669,2.8069247116674116,-2.699927581582476,0.19999463567277603,0.0,200.2,178.2,12.7,,,,,,,,,,,
3400.jpg,2160,3840,2020-08-25T14:16:26.972633,,mavic,DJI_0032,DJI_0032.MP4,180.0,,DJI_0032_merged.MP4_image139.png,2020-08-25 12:16:27,47.673505,9.270261,9.799522096921669,2.701927527939204,-2.699927581582476,0.09999731783638802,0.0,209.1,187.3,13.7,,,,,,,,,,,
3401.jpg,2160,3840,2020-08-25T14:16:27.473133,,mavic,DJI_0032,DJI_0032.MP4,195.0,,DJI_0032_merged.MP4_image139.png,2020-08-25 12:16:27,47.673505,9.270261,9.799522096921669,2.701927527939204,-2.699927581582476,0.09999731783638802,0.0,209.1,187.3,13.7,,,,,,,,,,,
3402.jpg,2160,3840,2020-08-25T14:16:27.973633,,mavic,DJI_0032,DJI_0032.MP4,210.0,,DJI_0032_merged.MP4_image167.png,2020-08-25 12:16:28,47.673481,9.270263,9.799522096921669,2.699927581582476,-2.699927581582476,0.0,0.0,218.3,196.3,14.6,,,,,,,,,,,
3403.jpg,2160,3840,2020-08-25T14:16:28.474133,,mavic,DJI_0032,DJI_0032.MP4,225.0,,DJI_0032_merged.MP4_image167.png,2020-08-25 12:16:28,47.673481,9.270263,9.799522096921669,2.699927581582476,-2.699927581582476,0.0,0.0,218.3,196.3,14.6,,,,,,,,,,,
3404.jpg,2160,3840,2020-08-25T14:16:28.974633,,mavic,DJI_0032,DJI_0032.MP4,240.0,,DJI_0032_merged.MP4_image199.png,2020-08-25 12:16:29,47.673456,9.270265,9.899517220359646,2.7999248994188646,-2.7999248994188646,0.0,0.0,227.2,205.3,16.0,,,,,,,,,,,
3405.jpg,2160,3840,2020-08-25T14:16:29.475133,,mavic,DJI_0032,DJI_0032.MP4,255.0,,DJI_0032_merged.MP4_image199.png,2020-08-25 12:16:29,47.673456,9.270265,9.899517220359646,2.7999248994188646,-2.7999248994188646,0.0,0.0,227.2,205.3,16.0,,,,,,,,,,,
3406.jpg,2160,3840,2020-08-25T14:16:29.975633,,mavic,DJI_0032,DJI_0032.MP4,270.0,,DJI_0032_merged.MP4_image231.png,2020-08-25 12:16:30,47.673431,9.270266,9.799522096921669,2.7999248994188646,-2.7999248994188646,0.0,0.0,236.2,214.3,17.7,,,,,,,,,,,
3407.jpg,2160,3840,2020-08-25T14:16:30.476133,,mavic,DJI_0032,DJI_0032.MP4,285.0,,DJI_0032_merged.MP4_image231.png,2020-08-25 12:16:30,47.673431,9.270266,9.799522096921669,2.7999248994188646,-2.7999248994188646,0.0,0.0,236.2,214.3,17.7,,,,,,,,,,,
3408.jpg,2160,3840,2020-08-25T14:16:30.976633,,mavic,DJI_0032,DJI_0032.MP4,300.0,,DJI_0032_merged.MP4_image266.png,2020-08-25 12:16:31,47.673405,9.270266,9.799522096921669,2.7999248994188646,-2.7999248994188646,0.0,0.0,245.1,223.3,19.4,,,,,,,,,,,
3409.jpg,2160,3840,2020-08-25T14:16:31.477133,,mavic,DJI_0032,DJI_0032.MP4,315.0,,DJI_0032_merged.MP4_image266.png,2020-08-25 12:16:31,47.673405,9.270266,9.799522096921669,2.7999248994188646,-2.7999248994188646,0.0,0.0,245.1,223.3,19.4,,,,,,,,,,,
3410.jpg,2160,3840,2020-08-25T14:16:31.977633,,mavic,DJI_0032,DJI_0032.MP4,330.0,,DJI_0032_merged.MP4_image290.png,2020-08-25 12:16:32,47.67338,9.270267,9.899517220359646,2.699927581582476,-2.699927581582476,0.0,0.0,254.1,232.3,21.8,,,,,,,,,,,
3411.jpg,2160,3840,2020-08-25T14:16:32.478133,,mavic,DJI_0032,DJI_0032.MP4,345.0,,DJI_0032_merged.MP4_image290.png,2020-08-25 12:16:32,47.67338,9.270267,9.899517220359646,2.699927581582476,-2.699927581582476,0.0,0.0,254.1,232.3,21.8,,,,,,,,,,,
3412.jpg,2160,3840,2020-08-25T14:17:07.012633,,mavic,DJI_0032,DJI_0032.MP4,1380.0,,DJI_0032_merged.MP4_image1326.png,2020-08-25 12:17:07,47.672557,9.270354,9.999512343797623,2.6079300491729995,-2.599930263746088,0.19999463567277603,0.0,359.7,342.8,19.7,,,,,,,,,,,
3413.jpg,2160,3840,2020-08-25T14:17:07.513133,,mavic,DJI_0032,DJI_0032.MP4,1395.0,,DJI_0032_merged.MP4_image1358.png,2020-08-25 12:17:08,47.672548,9.270356,9.999512343797623,0.19999463567277603,0.19999463567277603,0.0,0.0,355.9,338.0,18.4,,,,,,,,,,,
3414.jpg,2160,3840,2020-08-25T14:17:08.013633,,mavic,DJI_0032,DJI_0032.MP4,1410.0,,DJI_0032_merged.MP4_image1358.png,2020-08-25 12:17:08,47.672548,9.270356,9.999512343797623,0.19999463567277603,0.19999463567277603,0.0,0.0,355.9,338.0,18.4,,,,,,,,,,,
3415.jpg,2160,3840,2020-08-25T14:17:08.514133,,mavic,DJI_0032,DJI_0032.MP4,1425.0,,DJI_0032_merged.MP4_image1386.png,2020-08-25 12:17:09,47.672535,9.27036,9.999512343797623,3.0069193473401876,-2.9999195350916406,0.19999463567277603,0.0,326.1,307.2,17.6,,,,,,,,,,,
3416.jpg,2160,3840,2020-08-25T14:17:09.014633,,mavic,DJI_0032,DJI_0032.MP4,1440.0,,DJI_0032_merged.MP4_image1386.png,2020-08-25 12:17:09,47.672535,9.27036,9.999512343797623,3.0069193473401876,-2.9999195350916406,0.19999463567277603,0.0,326.1,307.2,17.6,,,,,,,,,,,
3417.jpg,2160,3840,2020-08-25T14:17:09.515133,,mavic,DJI_0032,DJI_0032.MP4,1455.0,,DJI_0032_merged.MP4_image1414.png,2020-08-25 12:17:10,47.672508,9.27036,9.999512343797623,3.0069193473401876,-2.9999195350916406,0.19999463567277603,0.0,280.4,260.5,15.3,,,,,,,,,,,
3418.jpg,2160,3840,2020-08-25T14:17:40.045633,,mavic,DJI_0032,DJI_0032.MP4,2370.0,,DJI_0032_merged.MP4_image2320.png,2020-08-25 12:17:40,47.671788,9.270314,9.999512343797623,2.701927527939204,-2.699927581582476,-0.09999731783638802,0.0,13.5,356.3,19.9,,,,,,,,,,,
3419.jpg,2160,3840,2020-08-25T14:17:40.546133,,mavic,DJI_0032,DJI_0032.MP4,2385.0,,DJI_0032_merged.MP4_image2345.png,2020-08-25 12:17:41,47.671764,9.270311,9.999512343797623,1.8999490388913725,-1.8999490388913725,0.0,0.0,7.1,350.2,18.2,,,,,,,,,,,
3420.jpg,2160,3840,2020-08-25T14:17:41.046633,,mavic,DJI_0032,DJI_0032.MP4,2400.0,,DJI_0032_merged.MP4_image2345.png,2020-08-25 12:17:41,47.671764,9.270311,9.999512343797623,1.8999490388913725,-1.8999490388913725,0.0,0.0,7.1,350.2,18.2,,,,,,,,,,,
3421.jpg,2160,3840,2020-08-25T14:17:41.547133,,mavic,DJI_0032,DJI_0032.MP4,2415.0,,DJI_0032_merged.MP4_image2373.png,2020-08-25 12:17:42,47.671762,9.270315,9.999512343797623,1.359963522574877,1.0999704962002683,0.7999785426911041,0.0,3.5,347.6,17.0,,,,,,,,,,,
3422.jpg,2160,3840,2020-08-25T14:17:42.047633,,mavic,DJI_0032,DJI_0032.MP4,2430.0,,DJI_0032_merged.MP4_image2373.png,2020-08-25 12:17:42,47.671762,9.270315,9.999512343797623,1.359963522574877,1.0999704962002683,0.7999785426911041,0.0,3.5,347.6,17.0,,,,,,,,,,,
3423.jpg,2160,3840,2020-08-25T14:17:42.548133,,mavic,DJI_0032,DJI_0032.MP4,2445.0,,DJI_0032_merged.MP4_image2401.png,2020-08-25 12:17:43,47.671781,9.270342,10.099507467235599,3.255912668752794,2.399935628073312,2.1999409924005366,0.0,0.4,343.4,17.5,,,,,,,,,,,
3424.jpg,2160,3840,2020-08-25T14:17:43.048633,,mavic,DJI_0032,DJI_0032.MP4,2460.0,,DJI_0032_merged.MP4_image2401.png,2020-08-25 12:17:43,47.671781,9.270342,10.099507467235599,3.255912668752794,2.399935628073312,2.1999409924005366,0.0,0.4,343.4,17.5,,,,,,,,,,,
3425.jpg,2160,3840,2020-08-25T14:17:43.549133,,mavic,DJI_0032,DJI_0032.MP4,2475.0,,DJI_0032_merged.MP4_image2426.png,2020-08-25 12:17:44,47.671801,9.270369,10.099507467235599,2.701927527939204,2.0999436745641487,1.6999544032185963,0.0,354.5,337.3,19.1,,,,,,,,,,,
3426.jpg,2160,3840,2020-08-25T14:17:54.059633,,mavic,DJI_0032,DJI_0032.MP4,2790.0,,DJI_0032_merged.MP4_image2721.png,2020-08-25 12:17:54,47.671984,9.270618,9.899517220359646,2.686927930263746,1.8999490388913725,1.8999490388913725,0.0,293.1,275.8,24.3,,,,,,,,,,,
3427.jpg,2160,3840,2020-08-25T14:17:54.560133,,mavic,DJI_0032,DJI_0032.MP4,2805.0,,DJI_0032_merged.MP4_image2749.png,2020-08-25 12:17:55,47.672002,9.270643,9.999512343797623,2.758925999105945,1.9999463567277604,1.8999490388913725,0.0,287.0,269.6,22.8,,,,,,,,,,,
3428.jpg,2160,3840,2020-08-25T14:17:55.060633,,mavic,DJI_0032,DJI_0032.MP4,2820.0,,DJI_0032_merged.MP4_image2749.png,2020-08-25 12:17:55,47.672002,9.270643,9.999512343797623,2.758925999105945,1.9999463567277604,1.8999490388913725,0.0,287.0,269.6,22.8,,,,,,,,,,,
3429.jpg,2160,3840,2020-08-25T14:17:55.561133,,mavic,DJI_0032,DJI_0032.MP4,2835.0,,DJI_0032_merged.MP4_image2773.png,2020-08-25 12:17:56,47.67202,9.270669,9.999512343797623,2.758925999105945,1.9999463567277604,1.8999490388913725,0.0,280.7,263.5,21.5,,,,,,,,,,,
3430.jpg,2160,3840,2020-08-25T14:17:56.061633,,mavic,DJI_0032,DJI_0032.MP4,2850.0,,DJI_0032_merged.MP4_image2773.png,2020-08-25 12:17:56,47.67202,9.270669,9.999512343797623,2.758925999105945,1.9999463567277604,1.8999490388913725,0.0,280.7,263.5,21.5,,,,,,,,,,,
3431.jpg,2160,3840,2020-08-25T14:17:56.562133,,mavic,DJI_0032,DJI_0032.MP4,2865.0,,DJI_0032_merged.MP4_image2805.png,2020-08-25 12:17:57,47.672038,9.270694,9.999512343797623,2.758925999105945,1.9999463567277604,1.8999490388913725,0.0,274.5,257.3,20.1,,,,,,,,,,,
3432.jpg,2160,3840,2020-08-25T14:17:57.062633,,mavic,DJI_0032,DJI_0032.MP4,2880.0,,DJI_0032_merged.MP4_image2805.png,2020-08-25 12:17:57,47.672038,9.270694,9.999512343797623,2.758925999105945,1.9999463567277604,1.8999490388913725,0.0,274.5,257.3,20.1,,,,,,,,,,,
3433.jpg,2160,3840,2020-08-25T14:17:57.563133,,mavic,DJI_0032,DJI_0032.MP4,2895.0,,DJI_0032_merged.MP4_image2830.png,2020-08-25 12:17:58,47.672056,9.270719,9.999512343797623,2.758925999105945,1.9999463567277604,1.8999490388913725,0.0,268.4,251.1,18.6,,,,,,,,,,,
3434.jpg,2160,3840,2020-08-25T14:17:58.063633,,mavic,DJI_0032,DJI_0032.MP4,2910.0,,DJI_0032_merged.MP4_image2830.png,2020-08-25 12:17:58,47.672056,9.270719,9.999512343797623,2.758925999105945,1.9999463567277604,1.8999490388913725,0.0,268.4,251.1,18.6,,,,,,,,,,,
3435.jpg,2160,3840,2020-08-25T14:17:58.564133,,mavic,DJI_0032,DJI_0032.MP4,2925.0,,DJI_0032_merged.MP4_image2851.png,2020-08-25 12:17:59,47.672074,9.270745,10.099507467235599,2.758925999105945,1.9999463567277604,1.8999490388913725,0.0,262.2,245.0,17.3,,,,,,,,,,,
3436.jpg,2160,3840,2020-08-25T14:17:59.064633,,mavic,DJI_0032,DJI_0032.MP4,2940.0,,DJI_0032_merged.MP4_image2851.png,2020-08-25 12:17:59,47.672074,9.270745,10.099507467235599,2.758925999105945,1.9999463567277604,1.8999490388913725,0.0,262.2,245.0,17.3,,,,,,,,,,,
3437.jpg,2160,3840,2020-08-25T14:17:59.565133,,mavic,DJI_0032,DJI_0032.MP4,2955.0,,DJI_0032_merged.MP4_image2879.png,2020-08-25 12:18:00,47.67209,9.270768,9.999512343797623,1.2729658560572195,0.8999758605274922,0.8999758605274922,0.0,258.5,239.4,16.2,,,,,,,,,,,
3438.jpg,2160,3840,2020-08-25T14:18:00.065633,,mavic,DJI_0032,DJI_0032.MP4,2970.0,,DJI_0032_merged.MP4_image2879.png,2020-08-25 12:18:00,47.67209,9.270768,9.999512343797623,1.2729658560572195,0.8999758605274922,0.8999758605274922,0.0,258.5,239.4,16.2,,,,,,,,,,,
3439.jpg,2160,3840,2020-08-25T14:18:00.566133,,mavic,DJI_0032,DJI_0032.MP4,2985.0,,DJI_0032_merged.MP4_image2910.png,2020-08-25 12:18:01,47.672092,9.270761,10.099507467235599,1.9029489584264638,-0.09999731783638802,-1.8999490388913725,0.0,254.3,237.1,15.6,,,,,,,,,,,
3440.jpg,2160,3840,2020-08-25T14:18:01.066633,,mavic,DJI_0032,DJI_0032.MP4,3000.0,,DJI_0032_merged.MP4_image2910.png,2020-08-25 12:18:01,47.672092,9.270761,10.099507467235599,1.9029489584264638,-0.09999731783638802,-1.8999490388913725,0.0,254.3,237.1,15.6,,,,,,,,,,,
3441.jpg,2160,3840,2020-08-25T14:18:01.567133,,mavic,DJI_0032,DJI_0032.MP4,3015.0,,DJI_0032_merged.MP4_image2935.png,2020-08-25 12:18:02,47.672093,9.27072,10.099507467235599,3.0999168529280285,0.0,-3.0999168529280285,0.0,247.6,230.5,16.4,,,,,,,,,,,
3442.jpg,2160,3840,2020-08-25T14:18:02.067633,,mavic,DJI_0032,DJI_0032.MP4,3030.0,,DJI_0032_merged.MP4_image2935.png,2020-08-25 12:18:02,47.672093,9.27072,10.099507467235599,3.0999168529280285,0.0,-3.0999168529280285,0.0,247.6,230.5,16.4,,,,,,,,,,,
3443.jpg,2160,3840,2020-08-25T14:18:02.568133,,mavic,DJI_0032,DJI_0032.MP4,3045.0,,DJI_0032_merged.MP4_image2959.png,2020-08-25 12:18:03,47.672091,9.270679,9.999512343797623,2.699927581582476,0.0,-2.699927581582476,0.0,239.8,222.6,17.9,,,,,,,,,,,
3444.jpg,2160,3840,2020-08-25T14:18:51.617133,,mavic,DJI_0032,DJI_0032.MP4,4515.0,,DJI_0032_merged.MP4_image4438.png,2020-08-25 12:18:52,47.672099,9.268975,9.899517220359646,2.7999248994188646,0.0,-2.7999248994188646,0.0,218.6,197.4,12.6,,,,,,,,,,,
3445.jpg,2160,3840,2020-08-25T14:18:52.117633,,mavic,DJI_0032,DJI_0032.MP4,4530.0,,DJI_0032_merged.MP4_image4438.png,2020-08-25 12:18:52,47.672099,9.268975,9.899517220359646,2.7999248994188646,0.0,-2.7999248994188646,0.0,218.6,197.4,12.6,,,,,,,,,,,
3446.jpg,2160,3840,2020-08-25T14:18:52.618133,,mavic,DJI_0032,DJI_0032.MP4,4545.0,,DJI_0032_merged.MP4_image4470.png,2020-08-25 12:18:53,47.672098,9.268938,9.899517220359646,2.7999248994188646,0.0,-2.7999248994188646,0.0,241.1,219.9,12.8,,,,,,,,,,,
3447.jpg,2160,3840,2020-08-25T14:18:53.118633,,mavic,DJI_0032,DJI_0032.MP4,4560.0,,DJI_0032_merged.MP4_image4470.png,2020-08-25 12:18:53,47.672098,9.268938,9.899517220359646,2.7999248994188646,0.0,-2.7999248994188646,0.0,241.1,219.9,12.8,,,,,,,,,,,
3448.jpg,2160,3840,2020-08-25T14:18:53.619133,,mavic,DJI_0032,DJI_0032.MP4,4575.0,,DJI_0032_merged.MP4_image4505.png,2020-08-25 12:18:54,47.672098,9.268906,9.899517220359646,1.0999704962002683,0.0,-1.0999704962002683,0.0,259.0,238.6,13.0,,,,,,,,,,,
3449.jpg,2160,3840,2020-08-25T14:18:54.119633,,mavic,DJI_0032,DJI_0032.MP4,4590.0,,DJI_0032_merged.MP4_image4505.png,2020-08-25 12:18:54,47.672098,9.268906,9.899517220359646,1.0999704962002683,0.0,-1.0999704962002683,0.0,259.0,238.6,13.0,,,,,,,,,,,
3450.jpg,2160,3840,2020-08-25T14:18:54.620133,,mavic,DJI_0032,DJI_0032.MP4,4605.0,,DJI_0032_merged.MP4_image4533.png,2020-08-25 12:18:55,47.672097,9.268901,9.999512343797623,1.4999597675458203,0.0,-1.4999597675458203,0.0,260.4,241.3,12.9,,,,,,,,,,,
3451.jpg,2160,3840,2020-08-25T14:18:55.120633,,mavic,DJI_0032,DJI_0032.MP4,4620.0,,DJI_0032_merged.MP4_image4533.png,2020-08-25 12:18:55,47.672097,9.268901,9.999512343797623,1.4999597675458203,0.0,-1.4999597675458203,0.0,260.4,241.3,12.9,,,,,,,,,,,
3452.jpg,2160,3840,2020-08-25T14:18:55.621133,,mavic,DJI_0032,DJI_0032.MP4,4635.0,,DJI_0032_merged.MP4_image4568.png,2020-08-25 12:18:56,47.672097,9.268869,9.999512343797623,3.0999168529280285,0.0,-3.0999168529280285,0.0,256.7,238.8,13.5,,,,,,,,,,,
3453.jpg,2160,3840,2020-08-25T14:18:56.121633,,mavic,DJI_0032,DJI_0032.MP4,4650.0,,DJI_0032_merged.MP4_image4568.png,2020-08-25 12:18:56,47.672097,9.268869,9.999512343797623,3.0999168529280285,0.0,-3.0999168529280285,0.0,256.7,238.8,13.5,,,,,,,,,,,
3454.jpg,2160,3840,2020-08-25T14:18:56.622133,,mavic,DJI_0032,DJI_0032.MP4,4665.0,,DJI_0032_merged.MP4_image4596.png,2020-08-25 12:18:57,47.672097,9.268824,9.999512343797623,2.8999222172552526,0.0,-2.8999222172552526,0.0,251.3,233.5,14.5,,,,,,,,,,,
3455.jpg,2160,3840,2020-08-25T14:18:57.122633,,mavic,DJI_0032,DJI_0032.MP4,4680.0,,DJI_0032_merged.MP4_image4596.png,2020-08-25 12:18:57,47.672097,9.268824,9.999512343797623,2.8999222172552526,0.0,-2.8999222172552526,0.0,251.3,233.5,14.5,,,,,,,,,,,
3456.jpg,2160,3840,2020-08-25T14:18:57.623133,,mavic,DJI_0032,DJI_0032.MP4,4695.0,,DJI_0032_merged.MP4_image4624.png,2020-08-25 12:18:58,47.672097,9.268783,9.899517220359646,2.699927581582476,0.0,-2.699927581582476,0.0,244.9,227.6,16.0,,,,,,,,,,,
3457.jpg,2160,3840,2020-08-25T14:18:58.123633,,mavic,DJI_0032,DJI_0032.MP4,4710.0,,DJI_0032_merged.MP4_image4624.png,2020-08-25 12:18:58,47.672097,9.268783,9.899517220359646,2.699927581582476,0.0,-2.699927581582476,0.0,244.9,227.6,16.0,,,,,,,,,,,
3458.jpg,2160,3840,2020-08-25T14:18:58.624133,,mavic,DJI_0032,DJI_0032.MP4,4725.0,,DJI_0032_merged.MP4_image4659.png,2020-08-25 12:18:59,47.672096,9.268742,9.899517220359646,2.699927581582476,0.0,-2.699927581582476,0.0,239.0,221.7,17.5,,,,,,,,,,,
3459.jpg,2160,3840,2020-08-25T14:18:59.124633,,mavic,DJI_0032,DJI_0032.MP4,4740.0,,DJI_0032_merged.MP4_image4659.png,2020-08-25 12:18:59,47.672096,9.268742,9.899517220359646,2.699927581582476,0.0,-2.699927581582476,0.0,239.0,221.7,17.5,,,,,,,,,,,
3460.jpg,2160,3840,2020-08-25T14:18:59.625133,,mavic,DJI_0032,DJI_0032.MP4,4755.0,,DJI_0032_merged.MP4_image4687.png,2020-08-25 12:19:00,47.672096,9.268712,9.899517220359646,2.7999248994188646,0.0,-2.7999248994188646,0.0,234.7,217.4,18.8,,,,,,,,,,,
3461.jpg,2160,3840,2020-08-25T14:19:20.145633,,mavic,DJI_0032,DJI_0032.MP4,5370.0,,DJI_0032_merged.MP4_image5267.png,2020-08-25 12:19:20,47.67209,9.267964,9.999512343797623,2.7999248994188646,0.0,-2.7999248994188646,0.0,127.3,110.0,16.0,,,,,,,,,,,
3462.jpg,2160,3840,2020-08-25T14:19:20.646133,,mavic,DJI_0032,DJI_0032.MP4,5385.0,,DJI_0032_merged.MP4_image5288.png,2020-08-25 12:19:21,47.67209,9.267926,9.999512343797623,2.7999248994188646,0.0,-2.7999248994188646,0.0,121.9,104.6,14.8,,,,,,,,,,,
3463.jpg,2160,3840,2020-08-25T14:19:21.146633,,mavic,DJI_0032,DJI_0032.MP4,5400.0,,DJI_0032_merged.MP4_image5288.png,2020-08-25 12:19:21,47.67209,9.267926,9.999512343797623,2.7999248994188646,0.0,-2.7999248994188646,0.0,121.9,104.6,14.8,,,,,,,,,,,
3619.jpg,2160,3840,2020-08-25T14:44:55.066633,,mavic,DJI_0038,DJI_0038.MP4,3000.0,,DJI_0037_AND_0038_AND_0039_AND_0040.MP4_image11901.png,2020-08-25 12:44:55,47.672609,9.269351,39.89805425175251,0.8599769333929369,0.4999865891819401,-0.6999812248547161,0.0,168.4,160.6,28.0,,,,,,,,,,,
3620.jpg,2160,3840,2020-08-25T14:44:55.567133,,mavic,DJI_0038,DJI_0038.MP4,3015.0,,DJI_0037_AND_0038_AND_0039_AND_0040.MP4_image11931.png,2020-08-25 12:44:56,47.672621,9.269323,39.99804937519049,3.224913500223513,1.5999570853822083,-2.7999248994188646,0.0,175.6,167.3,28.3,,,,,,,,,,,
3621.jpg,2160,3840,2020-08-25T14:44:56.067633,,mavic,DJI_0038,DJI_0038.MP4,3030.0,,DJI_0037_AND_0038_AND_0039_AND_0040.MP4_image11931.png,2020-08-25 12:44:56,47.672621,9.269323,39.99804937519049,3.224913500223513,1.5999570853822083,-2.7999248994188646,0.0,175.6,167.3,28.3,,,,,,,,,,,
3622.jpg,2160,3840,2020-08-25T14:44:56.568133,,mavic,DJI_0038,DJI_0038.MP4,3045.0,,DJI_0037_AND_0038_AND_0039_AND_0040.MP4_image11960.png,2020-08-25 12:44:57,47.672635,9.269287,40.09804449862847,2.817924416629414,1.299965131873044,-2.4999329459097,0.0,188.0,179.5,28.9,,,,,,,,,,,
3623.jpg,2160,3840,2020-08-25T14:44:57.068633,,mavic,DJI_0038,DJI_0038.MP4,3060.0,,DJI_0037_AND_0038_AND_0039_AND_0040.MP4_image11960.png,2020-08-25 12:44:57,47.672635,9.269287,40.09804449862847,2.817924416629414,1.299965131873044,-2.4999329459097,0.0,188.0,179.5,28.9,,,,,,,,,,,
3624.jpg,2160,3840,2020-08-25T14:44:57.569133,,mavic,DJI_0038,DJI_0038.MP4,3075.0,,DJI_0037_AND_0038_AND_0039_AND_0040.MP4_image11990.png,2020-08-25 12:44:58,47.672647,9.269254,39.99804937519049,2.6829280375502904,1.199967814036656,-2.399935628073312,0.0,200.2,191.7,29.5,,,,,,,,,,,
3625.jpg,2160,3840,2020-08-25T14:44:58.069633,,mavic,DJI_0038,DJI_0038.MP4,3090.0,,DJI_0037_AND_0038_AND_0039_AND_0040.MP4_image11990.png,2020-08-25 12:44:58,47.672647,9.269254,39.99804937519049,2.6829280375502904,1.199967814036656,-2.399935628073312,0.0,200.2,191.7,29.5,,,,,,,,,,,
3626.jpg,2160,3840,2020-08-25T14:44:58.570133,,mavic,DJI_0038,DJI_0038.MP4,3105.0,,DJI_0037_AND_0038_AND_0039_AND_0040.MP4_image12020.png,2020-08-25 12:44:59,47.672659,9.269223,39.99804937519049,2.6829280375502904,1.199967814036656,-2.399935628073312,0.0,212.3,203.9,30.0,,,,,,,,,,,
3627.jpg,2160,3840,2020-08-25T14:44:59.070633,,mavic,DJI_0038,DJI_0038.MP4,3120.0,,DJI_0037_AND_0038_AND_0039_AND_0040.MP4_image12020.png,2020-08-25 12:44:59,47.672659,9.269223,39.99804937519049,2.6829280375502904,1.199967814036656,-2.399935628073312,0.0,212.3,203.9,30.0,,,,,,,,,,,
3628.jpg,2160,3840,2020-08-25T14:44:59.571133,,mavic,DJI_0038,DJI_0038.MP4,3135.0,,DJI_0037_AND_0038_AND_0039_AND_0040.MP4_image12047.png,2020-08-25 12:45:00,47.672671,9.269192,39.99804937519049,2.6829280375502904,1.199967814036656,-2.399935628073312,0.0,224.6,216.1,30.6,,,,,,,,,,,
3629.jpg,2160,3840,2020-08-25T14:45:00.071633,,mavic,DJI_0038,DJI_0038.MP4,3150.0,,DJI_0037_AND_0038_AND_0039_AND_0040.MP4_image12047.png,2020-08-25 12:45:00,47.672671,9.269192,39.99804937519049,2.6829280375502904,1.199967814036656,-2.399935628073312,0.0,224.6,216.1,30.6,,,,,,,,,,,
3630.jpg,2160,3840,2020-08-25T14:45:00.572133,,mavic,DJI_0038,DJI_0038.MP4,3165.0,,DJI_0037_AND_0038_AND_0039_AND_0040.MP4_image12080.png,2020-08-25 12:45:01,47.672683,9.26916,40.09804449862847,2.817924416629414,1.299965131873044,-2.4999329459097,0.0,236.8,228.2,31.1,,,,,,,,,,,
3631.jpg,2160,3840,2020-08-25T14:45:01.072633,,mavic,DJI_0038,DJI_0038.MP4,3180.0,,DJI_0037_AND_0038_AND_0039_AND_0040.MP4_image12080.png,2020-08-25 12:45:01,47.672683,9.26916,40.09804449862847,2.817924416629414,1.299965131873044,-2.4999329459097,0.0,236.8,228.2,31.1,,,,,,,,,,,
3632.jpg,2160,3840,2020-08-25T14:45:01.573133,,mavic,DJI_0038,DJI_0038.MP4,3195.0,,DJI_0037_AND_0038_AND_0039_AND_0040.MP4_image12106.png,2020-08-25 12:45:02,47.672695,9.269128,40.09804449862847,2.817924416629414,1.299965131873044,-2.4999329459097,0.0,248.9,241.6,31.8,,,,,,,,,,,
3633.jpg,2160,3840,2020-08-25T14:45:02.073633,,mavic,DJI_0038,DJI_0038.MP4,3210.0,,DJI_0037_AND_0038_AND_0039_AND_0040.MP4_image12106.png,2020-08-25 12:45:02,47.672695,9.269128,40.09804449862847,2.817924416629414,1.299965131873044,-2.4999329459097,0.0,248.9,241.6,31.8,,,,,,,,,,,
3634.jpg,2160,3840,2020-08-25T14:45:02.574133,,mavic,DJI_0038,DJI_0038.MP4,3225.0,,DJI_0037_AND_0038_AND_0039_AND_0040.MP4_image12133.png,2020-08-25 12:45:03,47.672707,9.269096,40.09804449862847,2.817924416629414,1.299965131873044,-2.4999329459097,0.0,261.1,252.6,32.4,,,,,,,,,,,
3635.jpg,2160,3840,2020-08-25T14:45:03.074633,,mavic,DJI_0038,DJI_0038.MP4,3240.0,,DJI_0037_AND_0038_AND_0039_AND_0040.MP4_image12133.png,2020-08-25 12:45:03,47.672707,9.269096,40.09804449862847,2.817924416629414,1.299965131873044,-2.4999329459097,0.0,261.1,252.6,32.4,,,,,,,,,,,
3636.jpg,2160,3840,2020-08-25T14:45:03.575133,,mavic,DJI_0038,DJI_0038.MP4,3255.0,,DJI_0037_AND_0038_AND_0039_AND_0040.MP4_image12163.png,2020-08-25 12:45:04,47.67272,9.269063,40.09804449862847,2.8649231560125163,1.3999624497094323,-2.4999329459097,0.0,273.3,266.0,33.2,,,,,,,,,,,
3637.jpg,2160,3840,2020-08-25T14:45:04.075633,,mavic,DJI_0038,DJI_0038.MP4,3270.0,,DJI_0037_AND_0038_AND_0039_AND_0040.MP4_image12163.png,2020-08-25 12:45:04,47.67272,9.269063,40.09804449862847,2.8649231560125163,1.3999624497094323,-2.4999329459097,0.0,273.3,266.0,33.2,,,,,,,,,,,
3638.jpg,2160,3840,2020-08-25T14:45:04.576133,,mavic,DJI_0038,DJI_0038.MP4,3285.0,,DJI_0037_AND_0038_AND_0039_AND_0040.MP4_image12193.png,2020-08-25 12:45:05,47.67273,9.269034,40.09804449862847,1.1659687259722844,0.39998927134555207,-0.6999812248547161,0.0,282.9,275.8,34.0,,,,,,,,,,,
3639.jpg,2160,3840,2020-08-25T14:45:05.076633,,mavic,DJI_0038,DJI_0038.MP4,3300.0,,DJI_0037_AND_0038_AND_0039_AND_0040.MP4_image12193.png,2020-08-25 12:45:05,47.67273,9.269034,40.09804449862847,1.1659687259722844,0.39998927134555207,-0.6999812248547161,0.0,282.9,275.8,34.0,,,,,,,,,,,
3640.jpg,2160,3840,2020-08-25T14:45:05.577133,,mavic,DJI_0038,DJI_0038.MP4,3315.0,,DJI_0037_AND_0038_AND_0039_AND_0040.MP4_image12226.png,2020-08-25 12:45:06,47.67273,9.269032,39.99804937519049,0.09999731783638802,-0.09999731783638802,0.0,0.0,284.9,278.6,34.1,,,,,,,,,,,
3641.jpg,2160,3840,2020-08-25T14:45:06.077633,,mavic,DJI_0038,DJI_0038.MP4,3330.0,,DJI_0037_AND_0038_AND_0039_AND_0040.MP4_image12226.png,2020-08-25 12:45:06,47.67273,9.269032,39.99804937519049,0.09999731783638802,-0.09999731783638802,0.0,0.0,284.9,278.6,34.1,,,,,,,,,,,
3642.jpg,2160,3840,2020-08-25T14:45:06.578133,,mavic,DJI_0038,DJI_0038.MP4,3345.0,,DJI_0037_AND_0038_AND_0039_AND_0040.MP4_image12252.png,2020-08-25 12:45:07,47.672728,9.269035,40.09804449862847,0.0,0.0,0.0,0.0,284.9,279.0,34.1,,,,,,,,,,,
3643.jpg,2160,3840,2020-08-25T14:45:07.078633,,mavic,DJI_0038,DJI_0038.MP4,3360.0,,DJI_0037_AND_0038_AND_0039_AND_0040.MP4_image12252.png,2020-08-25 12:45:07,47.672728,9.269035,40.09804449862847,0.0,0.0,0.0,0.0,284.9,279.0,34.1,,,,,,,,,,,
3644.jpg,2160,3840,2020-08-25T14:45:07.579133,,mavic,DJI_0038,DJI_0038.MP4,3375.0,,DJI_0037_AND_0038_AND_0039_AND_0040.MP4_image12286.png,2020-08-25 12:45:08,47.672728,9.269036,40.09804449862847,0.0,0.0,0.0,0.0,284.8,279.2,34.1,,,,,,,,,,,
3645.jpg,2160,3840,2020-08-25T14:45:08.079633,,mavic,DJI_0038,DJI_0038.MP4,3390.0,,DJI_0037_AND_0038_AND_0039_AND_0040.MP4_image12286.png,2020-08-25 12:45:08,47.672728,9.269036,40.09804449862847,0.0,0.0,0.0,0.0,284.8,279.2,34.1,,,,,,,,,,,
3646.jpg,2160,3840,2020-08-25T14:45:08.580133,,mavic,DJI_0038,DJI_0038.MP4,3405.0,,DJI_0037_AND_0038_AND_0039_AND_0040.MP4_image12319.png,2020-08-25 12:45:09,47.672728,9.269035,40.09804449862847,0.0,0.0,0.0,0.0,284.8,279.3,34.1,,,,,,,,,,,
3647.jpg,2160,3840,2020-08-25T14:45:09.080633,,mavic,DJI_0038,DJI_0038.MP4,3420.0,,DJI_0037_AND_0038_AND_0039_AND_0040.MP4_image12319.png,2020-08-25 12:45:09,47.672728,9.269035,40.09804449862847,0.0,0.0,0.0,0.0,284.8,279.3,34.1,,,,,,,,,,,
3648.jpg,2160,3840,2020-08-25T14:45:09.581133,,mavic,DJI_0038,DJI_0038.MP4,3435.0,,DJI_0037_AND_0038_AND_0039_AND_0040.MP4_image12349.png,2020-08-25 12:45:10,47.672728,9.269034,40.09804449862847,0.0,0.0,0.0,0.0,284.8,279.4,34.1,,,,,,,,,,,
3649.jpg,2160,3840,2020-08-25T14:45:10.081633,,mavic,DJI_0038,DJI_0038.MP4,3450.0,,DJI_0037_AND_0038_AND_0039_AND_0040.MP4_image12349.png,2020-08-25 12:45:10,47.672728,9.269034,40.09804449862847,0.0,0.0,0.0,0.0,284.8,279.4,34.1,,,,,,,,,,,
3650.jpg,2160,3840,2020-08-25T14:45:10.582133,,mavic,DJI_0038,DJI_0038.MP4,3465.0,,DJI_0037_AND_0038_AND_0039_AND_0040.MP4_image12375.png,2020-08-25 12:45:11,47.672727,9.269033,40.09804449862847,0.0,0.0,0.0,0.0,284.8,279.4,34.1,,,,,,,,,,,
3651.jpg,2160,3840,2020-08-25T14:45:11.082633,,mavic,DJI_0038,DJI_0038.MP4,3480.0,,DJI_0037_AND_0038_AND_0039_AND_0040.MP4_image12375.png,2020-08-25 12:45:11,47.672727,9.269033,40.09804449862847,0.0,0.0,0.0,0.0,284.8,279.4,34.1,,,,,,,,,,,
3652.jpg,2160,3840,2020-08-25T14:45:11.583133,,mavic,DJI_0038,DJI_0038.MP4,3495.0,,DJI_0037_AND_0038_AND_0039_AND_0040.MP4_image12405.png,2020-08-25 12:45:12,47.672728,9.269032,40.198039622066446,0.0,0.0,0.0,0.0,284.8,279.4,34.1,,,,,,,,,,,
3676.jpg,2160,3840,2020-08-25T14:52:43.233633,,mavic,DJI_0039,DJI_0039.MP4,8010.0,,DJI_0037_AND_0038_AND_0039_AND_0040.MP4_image26039.png,2020-08-25 12:52:43,47.672687,9.267574,39.798059128314534,2.699927581582476,2.699927581582476,0.0,0.0,102.4,98.2,35.0,,,,,,,,,,,
3677.jpg,2160,3840,2020-08-25T14:52:43.734133,,mavic,DJI_0039,DJI_0039.MP4,8025.0,,DJI_0037_AND_0038_AND_0039_AND_0040.MP4_image26066.png,2020-08-25 12:52:44,47.672712,9.267574,39.798059128314534,2.699927581582476,2.699927581582476,0.0,0.0,101.9,97.6,34.9,,,,,,,,,,,
3678.jpg,2160,3840,2020-08-25T14:52:44.234633,,mavic,DJI_0039,DJI_0039.MP4,8040.0,,DJI_0037_AND_0038_AND_0039_AND_0040.MP4_image26066.png,2020-08-25 12:52:44,47.672712,9.267574,39.798059128314534,2.699927581582476,2.699927581582476,0.0,0.0,101.9,97.6,34.9,,,,,,,,,,,
3679.jpg,2160,3840,2020-08-25T14:52:44.735133,,mavic,DJI_0039,DJI_0039.MP4,8055.0,,DJI_0037_AND_0038_AND_0039_AND_0040.MP4_image26093.png,2020-08-25 12:52:45,47.672736,9.267573,39.798059128314534,2.699927581582476,2.699927581582476,0.0,0.0,101.3,97.0,34.8,,,,,,,,,,,
3680.jpg,2160,3840,2020-08-25T14:52:45.235633,,mavic,DJI_0039,DJI_0039.MP4,8070.0,,DJI_0037_AND_0038_AND_0039_AND_0040.MP4_image26093.png,2020-08-25 12:52:45,47.672736,9.267573,39.798059128314534,2.699927581582476,2.699927581582476,0.0,0.0,101.3,97.0,34.8,,,,,,,,,,,
3681.jpg,2160,3840,2020-08-25T14:52:45.736133,,mavic,DJI_0039,DJI_0039.MP4,8085.0,,DJI_0037_AND_0038_AND_0039_AND_0040.MP4_image26119.png,2020-08-25 12:52:46,47.672762,9.267572,39.89805425175251,2.699927581582476,2.699927581582476,0.0,0.0,100.6,96.3,34.7,,,,,,,,,,,
3682.jpg,2160,3840,2020-08-25T14:52:46.236633,,mavic,DJI_0039,DJI_0039.MP4,8100.0,,DJI_0037_AND_0038_AND_0039_AND_0040.MP4_image26119.png,2020-08-25 12:52:46,47.672762,9.267572,39.89805425175251,2.699927581582476,2.699927581582476,0.0,0.0,100.6,96.3,34.7,,,,,,,,,,,
3683.jpg,2160,3840,2020-08-25T14:52:46.737133,,mavic,DJI_0039,DJI_0039.MP4,8115.0,,DJI_0037_AND_0038_AND_0039_AND_0040.MP4_image26136.png,2020-08-25 12:52:47,47.672787,9.267572,39.798059128314534,2.699927581582476,2.699927581582476,0.0,0.0,100.2,95.8,34.6,,,,,,,,,,,
3684.jpg,2160,3840,2020-08-25T14:52:47.237633,,mavic,DJI_0039,DJI_0039.MP4,8130.0,,DJI_0037_AND_0038_AND_0039_AND_0040.MP4_image26136.png,2020-08-25 12:52:47,47.672787,9.267572,39.798059128314534,2.699927581582476,2.699927581582476,0.0,0.0,100.2,95.8,34.6,,,,,,,,,,,
3685.jpg,2160,3840,2020-08-25T14:52:47.738133,,mavic,DJI_0039,DJI_0039.MP4,8145.0,,DJI_0037_AND_0038_AND_0039_AND_0040.MP4_image26156.png,2020-08-25 12:52:48,47.672812,9.267571,39.798059128314534,2.699927581582476,2.699927581582476,0.0,0.0,99.5,95.2,34.5,,,,,,,,,,,
3686.jpg,2160,3840,2020-08-25T14:52:48.238633,,mavic,DJI_0039,DJI_0039.MP4,8160.0,,DJI_0037_AND_0038_AND_0039_AND_0040.MP4_image26156.png,2020-08-25 12:52:48,47.672812,9.267571,39.798059128314534,2.699927581582476,2.699927581582476,0.0,0.0,99.5,95.2,34.5,,,,,,,,,,,
3687.jpg,2160,3840,2020-08-25T14:52:48.739133,,mavic,DJI_0039,DJI_0039.MP4,8175.0,,DJI_0037_AND_0038_AND_0039_AND_0040.MP4_image26182.png,2020-08-25 12:52:49,47.672837,9.26757,39.798059128314534,2.699927581582476,2.699927581582476,0.0,0.0,98.9,94.6,34.4,,,,,,,,,,,
3688.jpg,2160,3840,2020-08-25T14:52:49.239633,,mavic,DJI_0039,DJI_0039.MP4,8190.0,,DJI_0037_AND_0038_AND_0039_AND_0040.MP4_image26182.png,2020-08-25 12:52:49,47.672837,9.26757,39.798059128314534,2.699927581582476,2.699927581582476,0.0,0.0,98.9,94.6,34.4,,,,,,,,,,,
3689.jpg,2160,3840,2020-08-25T14:52:49.740133,,mavic,DJI_0039,DJI_0039.MP4,8205.0,,DJI_0037_AND_0038_AND_0039_AND_0040.MP4_image26205.png,2020-08-25 12:52:50,47.672863,9.26757,39.798059128314534,2.699927581582476,2.699927581582476,0.0,0.0,98.2,94.0,34.4,,,,,,,,,,,
3690.jpg,2160,3840,2020-08-25T14:52:50.240633,,mavic,DJI_0039,DJI_0039.MP4,8220.0,,DJI_0037_AND_0038_AND_0039_AND_0040.MP4_image26205.png,2020-08-25 12:52:50,47.672863,9.26757,39.798059128314534,2.699927581582476,2.699927581582476,0.0,0.0,98.2,94.0,34.4,,,,,,,,,,,
3691.jpg,2160,3840,2020-08-25T14:52:50.741133,,mavic,DJI_0039,DJI_0039.MP4,8235.0,,DJI_0037_AND_0038_AND_0039_AND_0040.MP4_image26225.png,2020-08-25 12:52:51,47.672888,9.267569,39.798059128314534,2.699927581582476,2.699927581582476,0.0,0.0,97.8,93.4,34.3,,,,,,,,,,,
3692.jpg,2160,3840,2020-08-25T14:52:51.241633,,mavic,DJI_0039,DJI_0039.MP4,8250.0,,DJI_0037_AND_0038_AND_0039_AND_0040.MP4_image26225.png,2020-08-25 12:52:51,47.672888,9.267569,39.798059128314534,2.699927581582476,2.699927581582476,0.0,0.0,97.8,93.4,34.3,,,,,,,,,,,
3693.jpg,2160,3840,2020-08-25T14:52:51.742133,,mavic,DJI_0039,DJI_0039.MP4,8265.0,,DJI_0037_AND_0038_AND_0039_AND_0040.MP4_image26255.png,2020-08-25 12:52:52,47.672912,9.267568,39.798059128314534,1.9999463567277604,1.9999463567277604,0.0,0.0,96.5,92.8,34.1,,,,,,,,,,,
3694.jpg,2160,3840,2020-08-25T14:52:52.242633,,mavic,DJI_0039,DJI_0039.MP4,8280.0,,DJI_0037_AND_0038_AND_0039_AND_0040.MP4_image26255.png,2020-08-25 12:52:52,47.672912,9.267568,39.798059128314534,1.9999463567277604,1.9999463567277604,0.0,0.0,96.5,92.8,34.1,,,,,,,,,,,
3695.jpg,2160,3840,2020-08-25T14:52:52.743133,,mavic,DJI_0039,DJI_0039.MP4,8295.0,,DJI_0037_AND_0038_AND_0039_AND_0040.MP4_image26288.png,2020-08-25 12:52:53,47.672916,9.267568,39.798059128314534,0.09999731783638802,-0.09999731783638802,0.0,0.0,97.1,92.4,34.0,,,,,,,,,,,
3696.jpg,2160,3840,2020-08-25T14:52:53.243633,,mavic,DJI_0039,DJI_0039.MP4,8310.0,,DJI_0037_AND_0038_AND_0039_AND_0040.MP4_image26288.png,2020-08-25 12:52:53,47.672916,9.267568,39.798059128314534,0.09999731783638802,-0.09999731783638802,0.0,0.0,97.1,92.4,34.0,,,,,,,,,,,
3697.jpg,2160,3840,2020-08-25T14:52:53.744133,,mavic,DJI_0039,DJI_0039.MP4,8325.0,,DJI_0037_AND_0038_AND_0039_AND_0040.MP4_image26318.png,2020-08-25 12:52:54,47.672914,9.267569,39.598068881438586,0.0,0.0,0.0,0.0,97.0,92.2,34.0,,,,,,,,,,,
3698.jpg,2160,3840,2020-08-25T14:52:54.244633,,mavic,DJI_0039,DJI_0039.MP4,8340.0,,DJI_0037_AND_0038_AND_0039_AND_0040.MP4_image26318.png,2020-08-25 12:52:54,47.672914,9.267569,39.598068881438586,0.0,0.0,0.0,0.0,97.0,92.2,34.0,,,,,,,,,,,
3699.jpg,2160,3840,2020-08-25T14:52:54.745133,,mavic,DJI_0039,DJI_0039.MP4,8355.0,,DJI_0037_AND_0038_AND_0039_AND_0040.MP4_image26345.png,2020-08-25 12:52:55,47.672913,9.26757,39.598068881438586,0.09999731783638802,0.0,0.0,-0.09999731783638802,96.9,92.1,34.0,,,,,,,,,,,
3700.jpg,2160,3840,2020-08-25T14:52:55.245633,,mavic,DJI_0039,DJI_0039.MP4,8370.0,,DJI_0037_AND_0038_AND_0039_AND_0040.MP4_image26345.png,2020-08-25 12:52:55,47.672913,9.26757,39.598068881438586,0.09999731783638802,0.0,0.0,-0.09999731783638802,96.9,92.1,34.0,,,,,,,,,,,
3701.jpg,2160,3840,2020-08-25T14:52:55.746133,,mavic,DJI_0039,DJI_0039.MP4,8385.0,,DJI_0037_AND_0038_AND_0039_AND_0040.MP4_image26371.png,2020-08-25 12:52:56,47.672914,9.26757,39.598068881438586,0.0,0.0,0.0,0.0,97.0,92.0,34.0,,,,,,,,,,,
3702.jpg,2160,3840,2020-08-25T14:52:56.246633,,mavic,DJI_0039,DJI_0039.MP4,8400.0,,DJI_0037_AND_0038_AND_0039_AND_0040.MP4_image26371.png,2020-08-25 12:52:56,47.672914,9.26757,39.598068881438586,0.0,0.0,0.0,0.0,97.0,92.0,34.0,,,,,,,,,,,
3703.jpg,2160,3840,2020-08-25T14:52:56.747133,,mavic,DJI_0039,DJI_0039.MP4,8415.0,,DJI_0037_AND_0038_AND_0039_AND_0040.MP4_image26401.png,2020-08-25 12:52:57,47.672913,9.267569,39.69806400487656,0.0,0.0,0.0,0.0,97.0,92.0,34.0,,,,,,,,,,,
3704.jpg,2160,3840,2020-08-25T14:52:57.247633,,mavic,DJI_0039,DJI_0039.MP4,8430.0,,DJI_0037_AND_0038_AND_0039_AND_0040.MP4_image26401.png,2020-08-25 12:52:57,47.672913,9.267569,39.69806400487656,0.0,0.0,0.0,0.0,97.0,92.0,34.0,,,,,,,,,,,
3705.jpg,2160,3840,2020-08-25T14:52:57.748133,,mavic,DJI_0039,DJI_0039.MP4,8445.0,,DJI_0037_AND_0038_AND_0039_AND_0040.MP4_image26428.png,2020-08-25 12:52:58,47.672913,9.267569,39.69806400487656,0.0,0.0,0.0,0.0,97.0,92.0,34.0,,,,,,,,,,,
3706.jpg,2160,3840,2020-08-25T14:52:58.248633,,mavic,DJI_0039,DJI_0039.MP4,8460.0,,DJI_0037_AND_0038_AND_0039_AND_0040.MP4_image26428.png,2020-08-25 12:52:58,47.672913,9.267569,39.69806400487656,0.0,0.0,0.0,0.0,97.0,92.0,34.0,,,,,,,,,,,
3707.jpg,2160,3840,2020-08-25T14:52:58.749133,,mavic,DJI_0039,DJI_0039.MP4,8475.0,,DJI_0037_AND_0038_AND_0039_AND_0040.MP4_image26461.png,2020-08-25 12:52:59,47.672913,9.267569,39.798059128314534,0.0,0.0,0.0,0.0,97.0,92.0,34.0,,,,,,,,,,,
3708.jpg,2160,3840,2020-08-25T14:52:59.249633,,mavic,DJI_0039,DJI_0039.MP4,8490.0,,DJI_0037_AND_0038_AND_0039_AND_0040.MP4_image26461.png,2020-08-25 12:52:59,47.672913,9.267569,39.798059128314534,0.0,0.0,0.0,0.0,97.0,92.0,34.0,,,,,,,,,,,
3709.jpg,2160,3840,2020-08-25T14:52:59.750133,,mavic,DJI_0039,DJI_0039.MP4,8505.0,,DJI_0037_AND_0038_AND_0039_AND_0040.MP4_image26488.png,2020-08-25 12:53:00,47.672913,9.267569,39.798059128314534,0.0,0.0,0.0,0.0,97.0,91.9,34.0,,,,,,,,,,,
3710.jpg,2160,3840,2020-08-25T14:53:00.250633,,mavic,DJI_0039,DJI_0039.MP4,8520.0,,DJI_0037_AND_0038_AND_0039_AND_0040.MP4_image26488.png,2020-08-25 12:53:00,47.672913,9.267569,39.798059128314534,0.0,0.0,0.0,0.0,97.0,91.9,34.0,,,,,,,,,,,
3711.jpg,2160,3840,2020-08-25T14:53:00.751133,,mavic,DJI_0039,DJI_0039.MP4,8535.0,,DJI_0037_AND_0038_AND_0039_AND_0040.MP4_image26511.png,2020-08-25 12:53:01,47.672912,9.267568,39.798059128314534,0.0,0.0,0.0,0.0,97.0,91.9,34.0,,,,,,,,,,,
3712.jpg,2160,3840,2020-08-25T14:53:01.251633,,mavic,DJI_0039,DJI_0039.MP4,8550.0,,DJI_0037_AND_0038_AND_0039_AND_0040.MP4_image26511.png,2020-08-25 12:53:01,47.672912,9.267568,39.798059128314534,0.0,0.0,0.0,0.0,97.0,91.9,34.0,,,,,,,,,,,
3713.jpg,2160,3840,2020-08-25T14:53:01.752133,,mavic,DJI_0039,DJI_0039.MP4,8565.0,,DJI_0037_AND_0038_AND_0039_AND_0040.MP4_image26541.png,2020-08-25 12:53:02,47.672912,9.267566,39.798059128314534,0.0,0.0,0.0,0.0,97.0,91.9,34.0,,,,,,,,,,,
3714.jpg,2160,3840,2020-08-25T14:53:02.252633,,mavic,DJI_0039,DJI_0039.MP4,8580.0,,DJI_0037_AND_0038_AND_0039_AND_0040.MP4_image26541.png,2020-08-25 12:53:02,47.672912,9.267566,39.798059128314534,0.0,0.0,0.0,0.0,97.0,91.9,34.0,,,,,,,,,,,
3715.jpg,2160,3840,2020-08-25T14:53:02.753133,,mavic,DJI_0039,DJI_0039.MP4,8595.0,,DJI_0037_AND_0038_AND_0039_AND_0040.MP4_image26567.png,2020-08-25 12:53:03,47.672912,9.267566,39.798059128314534,0.6999812248547161,0.6999812248547161,0.0,0.0,96.5,91.9,34.0,,,,,,,,,,,
3758.jpg,2160,3840,2021-08-20T14:55:04.474133,,mavic,NorthSea_Fri_DJI_0110,NorthSea_Fri_DJI_0110.MP4,225.0,,DJI_0110.MP4_image153.png,2021-08-20 12:55:04,53.7194241329135,7.17500887757969,16.599190490704054,7.42980071524363,1.3999624497094323,-7.2998042020563245,-0.19999463567277603,280.8,271.4,1.6,,,,,,,,,,,
3759.jpg,2160,3840,2021-08-20T14:55:04.974633,,mavic,NorthSea_Fri_DJI_0110,NorthSea_Fri_DJI_0110.MP4,240.0,,DJI_0110.MP4_image181.png,2021-08-20 12:55:05,53.7194366994441,7.17490204175891,16.599190490704054,8.449773357174786,1.5999570853822083,-8.299777380420204,-0.19999463567277603,280.9,271.4,1.6,,,,,,,,,,,
3760.jpg,2160,3840,2021-08-20T14:55:05.475133,,mavic,NorthSea_Fri_DJI_0110,NorthSea_Fri_DJI_0110.MP4,255.0,,DJI_0110.MP4_image181.png,2021-08-20 12:55:05,53.7194366994441,7.17490204175891,16.599190490704054,8.449773357174786,1.5999570853822083,-8.299777380420204,-0.19999463567277603,280.9,271.4,1.6,,,,,,,,,,,
3761.jpg,2160,3840,2021-08-20T14:55:05.975633,,mavic,NorthSea_Fri_DJI_0110,NorthSea_Fri_DJI_0110.MP4,270.0,,DJI_0110.MP4_image211.png,2021-08-20 12:55:06,53.7194522511921,7.174770341561411,16.799180737580006,9.359748949485919,1.6999544032185963,-9.199753240947697,-0.19999463567277603,280.9,271.4,1.6,,,,,,,,,,,
3762.jpg,2160,3840,2021-08-20T14:55:06.476133,,mavic,NorthSea_Fri_DJI_0110,NorthSea_Fri_DJI_0110.MP4,285.0,,DJI_0110.MP4_image211.png,2021-08-20 12:55:06,53.7194522511921,7.174770341561411,16.799180737580006,9.359748949485919,1.6999544032185963,-9.199753240947697,-0.19999463567277603,280.9,271.4,1.6,,,,,,,,,,,
3763.jpg,2160,3840,2021-08-20T14:55:06.976633,,mavic,NorthSea_Fri_DJI_0110,NorthSea_Fri_DJI_0110.MP4,300.0,,DJI_0110.MP4_image244.png,2021-08-20 12:55:07,53.71947114063379,7.174607773351981,16.799180737580006,10.1797269557443,1.8999490388913725,-9.9997317836388,-0.09999731783638802,280.9,271.4,1.6,,,,,,,,,,,
3764.jpg,2160,3840,2021-08-20T14:55:07.477133,,mavic,NorthSea_Fri_DJI_0110,NorthSea_Fri_DJI_0110.MP4,315.0,,DJI_0110.MP4_image244.png,2021-08-20 12:55:07,53.71947114063379,7.174607773351981,16.799180737580006,10.1797269557443,1.8999490388913725,-9.9997317836388,-0.09999731783638802,280.9,271.4,1.6,,,,,,,,,,,
3765.jpg,2160,3840,2021-08-20T14:55:07.977633,,mavic,NorthSea_Fri_DJI_0110,NorthSea_Fri_DJI_0110.MP4,330.0,,DJI_0110.MP4_image271.png,2021-08-20 12:55:08,53.7194877664782,7.174467235491821,16.799180737580006,10.619715154224407,2.5999302637460886,-10.299723737147966,-0.09999731783638802,278.9,271.4,1.6,,,,,,,,,,,
3766.jpg,2160,3840,2021-08-20T14:55:08.478133,,mavic,NorthSea_Fri_DJI_0110,NorthSea_Fri_DJI_0110.MP4,345.0,,DJI_0110.MP4_image271.png,2021-08-20 12:55:08,53.7194877664782,7.174467235491821,16.799180737580006,10.619715154224407,2.5999302637460886,-10.299723737147966,-0.09999731783638802,278.9,271.4,1.6,,,,,,,,,,,
3767.jpg,2160,3840,2021-08-20T14:55:08.978633,,mavic,NorthSea_Fri_DJI_0110,NorthSea_Fri_DJI_0110.MP4,360.0,,DJI_0110.MP4_image302.png,2021-08-20 12:55:09,53.7195161872705,7.1743114889023305,16.799180737580006,10.93970657130085,3.3999088064371925,-10.399721054984354,-0.09999731783638802,280.3,271.4,1.6,,,,,,,,,,,
3768.jpg,2160,3840,2021-08-20T14:55:09.479133,,mavic,NorthSea_Fri_DJI_0110,NorthSea_Fri_DJI_0110.MP4,375.0,,DJI_0110.MP4_image302.png,2021-08-20 12:55:09,53.7195161872705,7.1743114889023305,16.799180737580006,10.93970657130085,3.3999088064371925,-10.399721054984354,-0.09999731783638802,280.3,271.4,1.6,,,,,,,,,,,
3769.jpg,2160,3840,2021-08-20T14:55:09.979633,,mavic,NorthSea_Fri_DJI_0110,NorthSea_Fri_DJI_0110.MP4,390.0,,DJI_0110.MP4_image332.png,2021-08-20 12:55:10,53.7195465812985,7.174151514160959,16.89917586101798,11.16970040232454,3.1999141707644165,-10.699713008493518,-0.09999731783638802,280.8,271.4,1.6,,,,,,,,,,,
3770.jpg,2160,3840,2021-08-20T14:55:10.480133,,mavic,NorthSea_Fri_DJI_0110,NorthSea_Fri_DJI_0110.MP4,405.0,,DJI_0110.MP4_image332.png,2021-08-20 12:55:10,53.7195465812985,7.174151514160959,16.89917586101798,11.16970040232454,3.1999141707644165,-10.699713008493518,-0.09999731783638802,280.8,271.4,1.6,,,,,,,,,,,
3771.jpg,2160,3840,2021-08-20T14:55:10.980633,,mavic,NorthSea_Fri_DJI_0110,NorthSea_Fri_DJI_0110.MP4,420.0,,DJI_0110.MP4_image362.png,2021-08-20 12:55:11,53.71957485232229,7.17398566520817,16.799180737580006,11.379694769780956,2.8999222172552526,-10.999704962002681,-0.09999731783638802,281.0,271.4,1.6,,,,,,,,,,,
3772.jpg,2160,3840,2021-08-20T14:55:11.481133,,mavic,NorthSea_Fri_DJI_0110,NorthSea_Fri_DJI_0110.MP4,435.0,,DJI_0110.MP4_image362.png,2021-08-20 12:55:11,53.71957485232229,7.17398566520817,16.799180737580006,11.379694769780956,2.8999222172552526,-10.999704962002681,-0.09999731783638802,281.0,271.4,1.6,,,,,,,,,,,
3773.jpg,2160,3840,2021-08-20T14:55:11.981633,,mavic,NorthSea_Fri_DJI_0110,NorthSea_Fri_DJI_0110.MP4,450.0,,DJI_0110.MP4_image395.png,2021-08-20 12:55:12,53.71960267813631,7.173795485176081,16.699185614142028,11.68968645507376,2.5999302637460886,-11.399694233348233,-0.19999463567277603,280.9,271.4,1.6,,,,,,,,,,,
3774.jpg,2160,3840,2021-08-20T14:55:12.482133,,mavic,NorthSea_Fri_DJI_0110,NorthSea_Fri_DJI_0110.MP4,465.0,,DJI_0110.MP4_image395.png,2021-08-20 12:55:12,53.71960267813631,7.173795485176081,16.699185614142028,11.68968645507376,2.5999302637460886,-11.399694233348233,-0.19999463567277603,280.9,271.4,1.6,,,,,,,,,,,
3775.jpg,2160,3840,2021-08-20T14:55:12.982633,,mavic,NorthSea_Fri_DJI_0110,NorthSea_Fri_DJI_0110.MP4,480.0,,DJI_0110.MP4_image420.png,2021-08-20 12:55:13,53.7196204365973,7.17365645942149,16.799180737580006,11.649687527939204,2.399935628073312,-11.399694233348233,-0.19999463567277603,280.7,271.4,1.6,,,,,,,,,,,
3776.jpg,2160,3840,2021-08-20T14:55:13.483133,,mavic,NorthSea_Fri_DJI_0110,NorthSea_Fri_DJI_0110.MP4,495.0,,DJI_0110.MP4_image420.png,2021-08-20 12:55:13,53.7196204365973,7.17365645942149,16.799180737580006,11.649687527939204,2.399935628073312,-11.399694233348233,-0.19999463567277603,280.7,271.4,1.6,,,,,,,,,,,
3777.jpg,2160,3840,2021-08-20T14:55:13.983633,,mavic,NorthSea_Fri_DJI_0110,NorthSea_Fri_DJI_0110.MP4,510.0,,DJI_0110.MP4_image453.png,2021-08-20 12:55:14,53.71964348339729,7.17346413647094,16.89917586101798,11.709685918641037,2.1999409924005366,-11.499691551184622,-0.09999731783638802,280.6,271.4,1.6,,,,,,,,,,,
3778.jpg,2160,3840,2021-08-20T14:55:14.484133,,mavic,NorthSea_Fri_DJI_0110,NorthSea_Fri_DJI_0110.MP4,525.0,,DJI_0110.MP4_image453.png,2021-08-20 12:55:14,53.71964348339729,7.17346413647094,16.89917586101798,11.709685918641037,2.1999409924005366,-11.499691551184622,-0.09999731783638802,280.6,271.4,1.6,,,,,,,,,,,
3779.jpg,2160,3840,2021-08-20T14:55:14.984633,,mavic,NorthSea_Fri_DJI_0110,NorthSea_Fri_DJI_0110.MP4,540.0,,DJI_0110.MP4_image486.png,2021-08-20 12:55:15,53.7196660387605,7.17327190686223,16.89917586101798,11.709685918641037,2.1999409924005366,-11.499691551184622,-0.09999731783638802,280.7,271.4,1.6,,,,,,,,,,,
3780.jpg,2160,3840,2021-08-20T14:55:15.485133,,mavic,NorthSea_Fri_DJI_0110,NorthSea_Fri_DJI_0110.MP4,555.0,,DJI_0110.MP4_image486.png,2021-08-20 12:55:15,53.7196660387605,7.17327190686223,16.89917586101798,11.709685918641037,2.1999409924005366,-11.499691551184622,-0.09999731783638802,280.7,271.4,1.6,,,,,,,,,,,
3781.jpg,2160,3840,2021-08-20T14:55:15.985633,,mavic,NorthSea_Fri_DJI_0110,NorthSea_Fri_DJI_0110.MP4,570.0,,DJI_0110.MP4_image513.png,2021-08-20 12:55:16,53.7196836965075,7.173114380694879,16.89917586101798,11.589689137237372,2.0999436745641487,-11.399694233348233,-0.09999731783638802,280.7,271.4,1.6,,,,,,,,,,,
3782.jpg,2160,3840,2021-08-20T14:55:16.486133,,mavic,NorthSea_Fri_DJI_0110,NorthSea_Fri_DJI_0110.MP4,585.0,,DJI_0110.MP4_image513.png,2021-08-20 12:55:16,53.7196836965075,7.173114380694879,16.89917586101798,11.589689137237372,2.0999436745641487,-11.399694233348233,-0.09999731783638802,280.7,271.4,1.6,,,,,,,,,,,
3783.jpg,2160,3840,2021-08-20T14:55:16.986633,,mavic,NorthSea_Fri_DJI_0110,NorthSea_Fri_DJI_0110.MP4,600.0,,DJI_0110.MP4_image544.png,2021-08-20 12:55:17,53.7197028855542,7.17294186288975,16.999170984455958,11.399694233348233,2.0999436745641487,-11.199699597675458,-0.09999731783638802,280.7,271.4,1.6,,,,,,,,,,,
3784.jpg,2160,3840,2021-08-20T14:55:17.487133,,mavic,NorthSea_Fri_DJI_0110,NorthSea_Fri_DJI_0110.MP4,615.0,,DJI_0110.MP4_image544.png,2021-08-20 12:55:17,53.7197028855542,7.17294186288975,16.999170984455958,11.399694233348233,2.0999436745641487,-11.199699597675458,-0.09999731783638802,280.7,271.4,1.6,,,,,,,,,,,
3785.jpg,2160,3840,2021-08-20T14:55:17.987633,,mavic,NorthSea_Fri_DJI_0110,NorthSea_Fri_DJI_0110.MP4,630.0,,DJI_0110.MP4_image577.png,2021-08-20 12:55:18,53.7197233837068,7.17275392746729,16.89917586101798,11.299696915511847,2.0999436745641487,-11.09970227983907,0.0,280.7,271.4,1.6,,,,,,,,,,,
3786.jpg,2160,3840,2021-08-20T14:55:18.488133,,mavic,NorthSea_Fri_DJI_0110,NorthSea_Fri_DJI_0110.MP4,645.0,,DJI_0110.MP4_image577.png,2021-08-20 12:55:18,53.7197233837068,7.17275392746729,16.89917586101798,11.299696915511847,2.0999436745641487,-11.09970227983907,0.0,280.7,271.4,1.6,,,,,,,,,,,
3787.jpg,2160,3840,2021-08-20T14:55:18.988633,,mavic,NorthSea_Fri_DJI_0110,NorthSea_Fri_DJI_0110.MP4,660.0,,DJI_0110.MP4_image604.png,2021-08-20 12:55:19,53.7197401987014,7.17260125279663,16.89917586101798,11.399694233348233,2.0999436745641487,-11.199699597675458,0.0,280.7,271.4,1.6,,,,,,,,,,,
3788.jpg,2160,3840,2021-08-20T14:55:19.489133,,mavic,NorthSea_Fri_DJI_0110,NorthSea_Fri_DJI_0110.MP4,675.0,,DJI_0110.MP4_image604.png,2021-08-20 12:55:19,53.7197401987014,7.17260125279663,16.89917586101798,11.399694233348233,2.0999436745641487,-11.199699597675458,0.0,280.7,271.4,1.6,,,,,,,,,,,
3789.jpg,2160,3840,2021-08-20T14:55:19.989633,,mavic,NorthSea_Fri_DJI_0110,NorthSea_Fri_DJI_0110.MP4,690.0,,DJI_0110.MP4_image634.png,2021-08-20 12:55:20,53.7197599374067,7.172429044233231,16.89917586101798,11.489691819400985,2.0999436745641487,-11.299696915511847,-0.09999731783638802,280.5,271.4,1.6,,,,,,,,,,,
3790.jpg,2160,3840,2021-08-20T14:55:20.490133,,mavic,NorthSea_Fri_DJI_0110,NorthSea_Fri_DJI_0110.MP4,705.0,,DJI_0110.MP4_image634.png,2021-08-20 12:55:20,53.7197599374067,7.172429044233231,16.89917586101798,11.489691819400985,2.0999436745641487,-11.299696915511847,-0.09999731783638802,280.5,271.4,1.6,,,,,,,,,,,
3791.jpg,2160,3840,2021-08-20T14:55:20.990633,,mavic,NorthSea_Fri_DJI_0110,NorthSea_Fri_DJI_0110.MP4,720.0,,DJI_0110.MP4_image668.png,2021-08-20 12:55:21,53.719782239392096,7.17223698859738,16.999170984455958,11.549690210102815,2.399935628073312,-11.299696915511847,-0.09999731783638802,279.3,271.4,1.6,,,,,,,,,,,
3792.jpg,2160,3840,2021-08-20T14:55:21.491133,,mavic,NorthSea_Fri_DJI_0110,NorthSea_Fri_DJI_0110.MP4,735.0,,DJI_0110.MP4_image668.png,2021-08-20 12:55:21,53.719782239392096,7.17223698859738,16.999170984455958,11.549690210102815,2.399935628073312,-11.299696915511847,-0.09999731783638802,279.3,271.4,1.6,,,,,,,,,,,
3793.jpg,2160,3840,2021-08-20T14:55:21.991633,,mavic,NorthSea_Fri_DJI_0110,NorthSea_Fri_DJI_0110.MP4,750.0,,DJI_0110.MP4_image695.png,2021-08-20 12:55:22,53.7198083900841,7.17208693703929,17.099166107893936,11.26969772016093,4.099890031291909,-10.499718372820743,0.0,278.3,271.4,1.6,,,,,,,,,,,
3794.jpg,2160,3840,2021-08-20T14:55:22.492133,,mavic,NorthSea_Fri_DJI_0110,NorthSea_Fri_DJI_0110.MP4,765.0,,DJI_0110.MP4_image695.png,2021-08-20 12:55:22,53.7198083900841,7.17208693703929,17.099166107893936,11.26969772016093,4.099890031291909,-10.499718372820743,0.0,278.3,271.4,1.6,,,,,,,,,,,
3795.jpg,2160,3840,2021-08-20T14:55:22.992633,,mavic,NorthSea_Fri_DJI_0110,NorthSea_Fri_DJI_0110.MP4,780.0,,DJI_0110.MP4_image725.png,2021-08-20 12:55:23,53.7198534264141,7.171937149552781,17.099166107893936,11.059703352704513,5.499852481001341,-9.599742512293249,0.0,279.5,271.4,1.6,,,,,,,,,,,
3796.jpg,2160,3840,2021-08-20T14:55:23.493133,,mavic,NorthSea_Fri_DJI_0110,NorthSea_Fri_DJI_0110.MP4,795.0,,DJI_0110.MP4_image725.png,2021-08-20 12:55:23,53.7198534264141,7.171937149552781,17.099166107893936,11.059703352704513,5.499852481001341,-9.599742512293249,0.0,279.5,271.4,1.6,,,,,,,,,,,
3797.jpg,2160,3840,2021-08-20T14:55:23.993633,,mavic,NorthSea_Fri_DJI_0110,NorthSea_Fri_DJI_0110.MP4,810.0,,DJI_0110.MP4_image758.png,2021-08-20 12:55:24,53.719907308237495,7.171774320630161,17.19916123133191,11.089702548055431,4.9998658918194,-9.899734465802414,0.0,281.2,271.4,1.6,,,,,,,,,,,
3798.jpg,2160,3840,2021-08-20T14:55:24.494133,,mavic,NorthSea_Fri_DJI_0110,NorthSea_Fri_DJI_0110.MP4,825.0,,DJI_0110.MP4_image758.png,2021-08-20 12:55:24,53.719907308237495,7.171774320630161,17.19916123133191,11.089702548055431,4.9998658918194,-9.899734465802414,0.0,281.2,271.4,1.6,,,,,,,,,,,
3799.jpg,2160,3840,2021-08-20T14:55:24.994633,,mavic,NorthSea_Fri_DJI_0110,NorthSea_Fri_DJI_0110.MP4,840.0,,DJI_0110.MP4_image786.png,2021-08-20 12:55:25,53.719944747422296,7.17163502281183,17.099166107893936,11.029704157353597,4.199887349128297,-10.199726419311578,0.0,281.3,271.4,1.6,,,,,,,,,,,
3800.jpg,2160,3840,2021-08-20T14:55:25.495133,,mavic,NorthSea_Fri_DJI_0110,NorthSea_Fri_DJI_0110.MP4,855.0,,DJI_0110.MP4_image786.png,2021-08-20 12:55:25,53.719944747422296,7.17163502281183,17.099166107893936,11.029704157353597,4.199887349128297,-10.199726419311578,0.0,281.3,271.4,1.6,,,,,,,,,,,
3801.jpg,2160,3840,2021-08-20T14:55:25.995633,,mavic,NorthSea_Fri_DJI_0110,NorthSea_Fri_DJI_0110.MP4,870.0,,DJI_0110.MP4_image816.png,2021-08-20 12:55:26,53.7199798743059,7.171475198283911,16.999170984455958,11.159700670540904,3.49990612427358,-10.599715690657131,0.0,281.2,271.4,1.6,,,,,,,,,,,
3802.jpg,2160,3840,2021-08-20T14:55:26.496133,,mavic,NorthSea_Fri_DJI_0110,NorthSea_Fri_DJI_0110.MP4,885.0,,DJI_0110.MP4_image816.png,2021-08-20 12:55:26,53.7199798743059,7.171475198283911,16.999170984455958,11.159700670540904,3.49990612427358,-10.599715690657131,0.0,281.2,271.4,1.6,,,,,,,,,,,
3803.jpg,2160,3840,2021-08-20T14:55:26.996633,,mavic,NorthSea_Fri_DJI_0110,NorthSea_Fri_DJI_0110.MP4,900.0,,DJI_0110.MP4_image849.png,2021-08-20 12:55:27,53.72001185518229,7.171293343227509,16.89917586101798,11.379694769780956,2.8999222172552526,-10.999704962002681,-0.09999731783638802,281.1,271.4,1.6,,,,,,,,,,,
3804.jpg,2160,3840,2021-08-20T14:55:27.497133,,mavic,NorthSea_Fri_DJI_0110,NorthSea_Fri_DJI_0110.MP4,915.0,,DJI_0110.MP4_image849.png,2021-08-20 12:55:27,53.72001185518229,7.171293343227509,16.89917586101798,11.379694769780956,2.8999222172552526,-10.999704962002681,-0.09999731783638802,281.1,271.4,1.6,,,,,,,,,,,
3805.jpg,2160,3840,2021-08-20T14:55:27.997633,,mavic,NorthSea_Fri_DJI_0110,NorthSea_Fri_DJI_0110.MP4,930.0,,DJI_0110.MP4_image876.png,2021-08-20 12:55:28,53.7200334264712,7.171139075787411,16.999170984455958,11.549690210102815,2.399935628073312,-11.299696915511847,0.0,281.1,271.4,1.6,,,,,,,,,,,
3806.jpg,2160,3840,2021-08-20T14:55:28.498133,,mavic,NorthSea_Fri_DJI_0110,NorthSea_Fri_DJI_0110.MP4,945.0,,DJI_0110.MP4_image876.png,2021-08-20 12:55:28,53.7200334264712,7.171139075787411,16.999170984455958,11.549690210102815,2.399935628073312,-11.299696915511847,0.0,281.1,271.4,1.6,,,,,,,,,,,
3807.jpg,2160,3840,2021-08-20T14:55:28.998633,,mavic,NorthSea_Fri_DJI_0110,NorthSea_Fri_DJI_0110.MP4,960.0,,DJI_0110.MP4_image907.png,2021-08-20 12:55:29,53.720054270387706,7.170963633040639,17.099166107893936,11.609688600804647,2.1999409924005366,-11.399694233348233,0.0,280.9,271.4,1.6,,,,,,,,,,,
3808.jpg,2160,3840,2021-08-20T14:55:29.499133,,mavic,NorthSea_Fri_DJI_0110,NorthSea_Fri_DJI_0110.MP4,975.0,,DJI_0110.MP4_image907.png,2021-08-20 12:55:29,53.720054270387706,7.170963633040639,17.099166107893936,11.609688600804647,2.1999409924005366,-11.399694233348233,0.0,280.9,271.4,1.6,,,,,,,,,,,
3809.jpg,2160,3840,2021-08-20T14:55:29.999633,,mavic,NorthSea_Fri_DJI_0110,NorthSea_Fri_DJI_0110.MP4,990.0,,DJI_0110.MP4_image937.png,2021-08-20 12:55:30,53.7200739334293,7.17078853127063,16.999170984455958,11.789683772910147,2.0999436745641487,-11.59968886902101,0.0,280.9,271.4,1.6,,,,,,,,,,,
3810.jpg,2160,3840,2021-08-20T14:55:30.500133,,mavic,NorthSea_Fri_DJI_0110,NorthSea_Fri_DJI_0110.MP4,1005.0,,DJI_0110.MP4_image967.png,2021-08-20 12:55:31,53.7200929776596,7.17061131692714,16.799180737580006,11.789683772910147,2.0999436745641487,-11.59968886902101,0.0,280.8,271.4,1.6,,,,,,,,,,,
3811.jpg,2160,3840,2021-08-20T14:55:31.000633,,mavic,NorthSea_Fri_DJI_0110,NorthSea_Fri_DJI_0110.MP4,1020.0,,DJI_0110.MP4_image967.png,2021-08-20 12:55:31,53.7200929776596,7.17061131692714,16.799180737580006,11.789683772910147,2.0999436745641487,-11.59968886902101,0.0,280.8,271.4,1.6,,,,,,,,,,,
3812.jpg,2160,3840,2021-08-20T14:55:31.501133,,mavic,NorthSea_Fri_DJI_0110,NorthSea_Fri_DJI_0110.MP4,1035.0,,DJI_0110.MP4_image997.png,2021-08-20 12:55:32,53.7201122550492,7.17043307965335,16.89917586101798,11.889681090746537,2.0999436745641487,-11.699686186857399,-0.09999731783638802,280.8,271.4,1.6,,,,,,,,,,,
3813.jpg,2160,3840,2021-08-20T14:55:32.001633,,mavic,NorthSea_Fri_DJI_0110,NorthSea_Fri_DJI_0110.MP4,1050.0,,DJI_0110.MP4_image997.png,2021-08-20 12:55:32,53.7201122550492,7.17043307965335,16.89917586101798,11.889681090746537,2.0999436745641487,-11.699686186857399,-0.09999731783638802,280.8,271.4,1.6,,,,,,,,,,,
3814.jpg,2160,3840,2021-08-20T14:55:32.502133,,mavic,NorthSea_Fri_DJI_0110,NorthSea_Fri_DJI_0110.MP4,1065.0,,DJI_0110.MP4_image1025.png,2021-08-20 12:55:33,53.72012951720679,7.17027219003668,16.999170984455958,11.789683772910147,2.0999436745641487,-11.59968886902101,0.0,280.8,271.4,1.6,,,,,,,,,,,
3815.jpg,2160,3840,2021-08-20T14:55:33.002633,,mavic,NorthSea_Fri_DJI_0110,NorthSea_Fri_DJI_0110.MP4,1080.0,,DJI_0110.MP4_image1025.png,2021-08-20 12:55:33,53.72012951720679,7.17027219003668,16.999170984455958,11.789683772910147,2.0999436745641487,-11.59968886902101,0.0,280.8,271.4,1.6,,,,,,,,,,,
3816.jpg,2160,3840,2021-08-20T14:55:33.503133,,mavic,NorthSea_Fri_DJI_0110,NorthSea_Fri_DJI_0110.MP4,1095.0,,DJI_0110.MP4_image1058.png,2021-08-20 12:55:34,53.7201498492282,7.170078179807169,17.099166107893936,11.669686991506481,1.9999463567277604,-11.499691551184622,0.0,281.1,271.4,1.6,,,,,,,,,,,
3817.jpg,2160,3840,2021-08-20T14:55:34.003633,,mavic,NorthSea_Fri_DJI_0110,NorthSea_Fri_DJI_0110.MP4,1110.0,,DJI_0110.MP4_image1058.png,2021-08-20 12:55:34,53.7201498492282,7.170078179807169,17.099166107893936,11.669686991506481,1.9999463567277604,-11.499691551184622,0.0,281.1,271.4,1.6,,,,,,,,,,,
3818.jpg,2160,3840,2021-08-20T14:55:34.504133,,mavic,NorthSea_Fri_DJI_0110,NorthSea_Fri_DJI_0110.MP4,1125.0,,DJI_0110.MP4_image1091.png,2021-08-20 12:55:35,53.720168558797205,7.169886984489139,17.099166107893936,11.609688600804647,1.5999570853822083,-11.499691551184622,0.0,281.5,271.4,1.6,,,,,,,,,,,
3819.jpg,2160,3840,2021-08-20T14:55:35.004633,,mavic,NorthSea_Fri_DJI_0110,NorthSea_Fri_DJI_0110.MP4,1140.0,,DJI_0110.MP4_image1091.png,2021-08-20 12:55:35,53.720168558797205,7.169886984489139,17.099166107893936,11.609688600804647,1.5999570853822083,-11.499691551184622,0.0,281.5,271.4,1.6,,,,,,,,,,,
3820.jpg,2160,3840,2021-08-20T14:55:35.505133,,mavic,NorthSea_Fri_DJI_0110,NorthSea_Fri_DJI_0110.MP4,1155.0,,DJI_0110.MP4_image1118.png,2021-08-20 12:55:36,53.7201804018833,7.16972794986025,17.099166107893936,11.669686991506481,1.2999651318730443,-11.59968886902101,0.0,281.5,271.4,1.6,,,,,,,,,,,
3821.jpg,2160,3840,2021-08-20T14:55:36.005633,,mavic,NorthSea_Fri_DJI_0110,NorthSea_Fri_DJI_0110.MP4,1170.0,,DJI_0110.MP4_image1118.png,2021-08-20 12:55:36,53.7201804018833,7.16972794986025,17.099166107893936,11.669686991506481,1.2999651318730443,-11.59968886902101,0.0,281.5,271.4,1.6,,,,,,,,,,,
3822.jpg,2160,3840,2021-08-20T14:55:36.506133,,mavic,NorthSea_Fri_DJI_0110,NorthSea_Fri_DJI_0110.MP4,1185.0,,DJI_0110.MP4_image1149.png,2021-08-20 12:55:37,53.7201905645356,7.16954910753803,17.099166107893936,11.739685113991953,0.9999731783638802,-11.699686186857399,0.0,281.4,271.4,1.6,,,,,,,,,,,
3823.jpg,2160,3840,2021-08-20T14:55:37.006633,,mavic,NorthSea_Fri_DJI_0110,NorthSea_Fri_DJI_0110.MP4,1200.0,,DJI_0110.MP4_image1149.png,2021-08-20 12:55:37,53.7201905645356,7.16954910753803,17.099166107893936,11.739685113991953,0.9999731783638802,-11.699686186857399,0.0,281.4,271.4,1.6,,,,,,,,,,,
3824.jpg,2160,3840,2021-08-20T14:55:37.507133,,mavic,NorthSea_Fri_DJI_0110,NorthSea_Fri_DJI_0110.MP4,1215.0,,DJI_0110.MP4_image1179.png,2021-08-20 12:55:38,53.72019964507339,7.16937007017337,17.099166107893936,11.829682700044701,0.8999758605274922,-11.799683504693785,0.0,281.3,271.4,1.6,,,,,,,,,,,
3825.jpg,2160,3840,2021-08-20T14:55:38.007633,,mavic,NorthSea_Fri_DJI_0110,NorthSea_Fri_DJI_0110.MP4,1230.0,,DJI_0110.MP4_image1179.png,2021-08-20 12:55:38,53.72019964507339,7.16937007017337,17.099166107893936,11.829682700044701,0.8999758605274922,-11.799683504693785,0.0,281.3,271.4,1.6,,,,,,,,,,,
3826.jpg,2160,3840,2021-08-20T14:55:38.508133,,mavic,NorthSea_Fri_DJI_0110,NorthSea_Fri_DJI_0110.MP4,1245.0,,DJI_0110.MP4_image1209.png,2021-08-20 12:55:39,53.7202076278704,7.16919013681818,17.099166107893936,11.829682700044701,0.8999758605274922,-11.799683504693785,0.0,281.3,271.4,1.6,,,,,,,,,,,
